Title,Address,Latitude,Longitude,Phone,Website,Email,volunteer-email,volunteer-website,volunteer-phone,Notes,Category,PlaceID,Source,Monday,Tuesday,Wednesday,Thursday,Friday,Saturday,Sunday,Image
9 Million Reasons,"39-21 Crescent St, Long Island City, NY 11101, USA",40.7542097,-73.9371118,(718) 361-2817,https://www.9millionreasons.nyc/,info@9mr.nyc,,,,,Food bank,ChIJlxqQWdNYwokRwH0PRJxiFM4,AP,"Monday,9AM to 4PM","Tuesday,9AM to 4PM","Wednesday,9AM to 4PM","Thursday,9AM to 4PM","Friday,9AM to 4PM","Saturday,9AM to 12PM","Sunday,Closed",
Abraham House Inc.,"342 Willis Ave, Mineola, NY 11501, USA",40.7489572,-73.642144,(718) 292-9321,,,,,,,Food bank,EiYzNDIgV2lsbGlzIEF2ZSwgTWluZW9sYSwgTlkgMTE1MDEsIFVTQSIxEi8KFAoSCTGA_g76h8KJEfFFpD2QgXOLENYCKhQKEgll5mOy54fCiRGSarxJCsfcKw,OM,closed,closed,closed,closed,closed,06:30 AM - 07:30 AM,closed,
Abrigo Del Altisimo,"2009 Monterey Ave, Bronx, NY 10457, USA",40.8430848,-73.8946562,(718) 669-4826,,,,,,,Food bank,ChIJ43fIh2P0wokRYE3Pn2SdfSs,OM,closed,12:00 PM - 02:00 PM,closed,closed,closed,closed,closed,
ABUNDANT GRACE FOR THE FORSAKEN FOOD PANTRY,"3101 Eastchester Rd, Bronx, NY 10469, USA",40.8622759,-73.844001,(347) 449-5663,,,,,,,Food bank,ChIJJcmy5tHzwokRUPVS7H0x58M,OM,-,-,-,-,-,9:00 AM - 11:00 AM,-,
Abundant Life Tabernacle - Food Distribution Center,"2692 3rd Ave., Bronx, NY 10454, USA",40.813361,-73.922216,(718) 292-8734,https://www.facebook.com/AbundantLifeTabernacleBX/?ref=page_internal,zoe144@earthlink.net,,,,"Phone: (718) 292-8734
Email: zoe144@earthlink.net
Food Pantry Hours of Operation:
Tuesday, Wednesday, Thursday: 10:30 AM - 2:30 PM",Food bank,ChIJEwJjHMX1wokRPWvcLMTlOds,AP,closed,12:00 PM - 02:00 PM,closed,12:00 PM - 02:00 PM,closed,closed,closed,
Abyssinian Baptist Church - Food Distribution Center,"132 Odell Clark Pl, New York, NY 10030, USA",40.8166333,-73.9414844,(212) 862-7474,https://abyssinian.org/event/abyssinian-food-pantry/,info@abyssinian.org,,,,,Food bank,ChIJMctiPXf2wokRJGHavSe-0fw,AP,"Monday,Closed","Tuesday,10AM to 6PM","Wednesday,Closed","Thursday,Closed","Friday,10AM to 6PM","Saturday,Closed","Sunday,Closed",
ACQC - Food Distribution Center,"161-21 Jamaica Ave, Jamaica, NY 11432, USA",40.7049187,-73.7972845,(718) 896-2500,http://acqc.org/,,,,,,Food bank,ChIJm7Iz0d5gwokRKuNXKbnZ0zs,AP,"Monday,10AM to 12PM","Tuesday,10AM to 12PM","Wednesday,10AM to 12PM","Thursday,10AM to 12PM","Friday,10AM to 12PM","Saturday,Closed","Sunday,Closed",
ACS - The Administration for Children's Services,"2501 Grand Concourse #5th, Bronx, NY 10468, USA",40.859459,-73.8974937,(718) 933-7143,,,,,,,Food bank,EjMyNTAxIEdyYW5kIENvbmNvdXJzZSAjNXRoLCBUaGUgQnJvbngsIE5ZIDEwNDY4LCBVU0EiHxodChYKFAoSCRWSzA6H88KJEVFAp-9yUfqCEgM1dGg,OM,11:00 AM - 07:00 PM,closed,11:00 AM - 07:00 PM,closed,11:00 AM - 07:00 PM,closed,closed,
Act of Faith Ministries,"141 Manhattan Ave, New York, NY 10025, USA",40.795809,-73.9617009,(516) 852-5934,,,,,,,Food bank,EioxNDEgTWFuaGF0dGFuIEF2ZSwgTmV3IFlvcmssIE5ZIDEwMDI1LCBVU0EiMRIvChQKEgkx4_BPIvbCiRFqjNaSa7Ut9RCNASoUChIJ4WAXwxf2wokRm48eJBxcNDI,OM,closed,closed,closed,12:00 PM - 01:00 PM,closed,closed,closed,
Action Center Food Pantry - Food Distribution Center,"57-10 Beach Channel Dr, Arverne, NY 11692, USA",40.5950484,-73.7875215,(718) 869-0031,,,,,,,Food bank,ChIJPagswI5owokRO6hC4lrY3vI,AP,,,,,,,,
Action For Community Empowerment - Ace - Food Distribution Center,"1 W 125th St, New York, NY 10027, USA",40.8066002,-73.9423267,(212) 996-6388,,,,,,,Food bank,ChIJr08DhAz2wokR1TBBe5XEjyA,AP,,,,,,,,
Acts Community Development Corp - Food Distribution Center,"2114 Mermaid Ave, Brooklyn, NY 11224, USA",40.5760102,-73.9884012,+1 718-415-1170,http://actsnyc.org/home.aspx,,,,,,Food bank,ChIJi-K5JcpFwokRdV8eIKDzo2k,AP,"Monday,2 to 5pm","Tuesday,9am to 7pm","Wednesday,2 to 7:30pm","Thursday,9am to 5pm","Friday,2 to 7:30pm","Saturday,Closed","Sunday,11am to 2pm",
Administration For Children's Services (tasa - Teenage Services Act Program) - Food Distribution Center,"2551 Bainbridge Ave # F44, Bronx, NY 10458, USA",40.862831,-73.8933154,(718) 220-6686,,,,,,,Food bank,ChIJZ0v45oDzwokRrbPcu6ENiEk,AP,,,,,,,,
"Admirable Church, Inc.","1910 Flatbush Ave, Brooklyn, NY 11210, USA",40.6231123,-73.9377387,(347) 779-7192,,,,,,,Food bank,ChIJl95At6lEwokRn0AbSO8pzWw,OM,closed,closed,closed,closed,closed,10:00 AM - 12:00 PM,closed,
Advent Lutheran Church - Community Lunch - Soup Kitchen Food Pantry,"2504 Broadway, New York, NY 10025, USA",40.7927122,-73.9726722,(212) 665-2504,https://www.adventnyc.org/,sergio@adventnyc.org,,,,,Food bank,ChIJq6p6ooJYwokRfxNfwxygYQw,AP,,,,,,,,
"Advocates For Children Of New York, Inc. - Food Distribution Center","151 W 30th St, New York, NY 10001, USA",40.7483214,-73.9918488,(212) 947-9779,http://www.advocatesforchildren.org/,info@advocatesforchildren.org,,,,,Food bank,ChIJL5H9p69ZwokReONrBlRlaVM,AP,,,,,,,,
Africa Redemption Alliance Pantry - Food Distribution Center,"1299 College Ave, Bronx, NY 10456, USA",40.835437,-73.912101,,,,,,,,Food bank,ChIJv1NNiUf0wokROFPmdDKIKJM,AP,,,,,,,,
African Americans For Bread Not For Bombs - Food Distribution Center,"260 Quincy St, Brooklyn, NY 11216, USA",40.6868134,-73.9510963,(718) 783-5761,,,,,,,Food bank,ChIJ4WqQ0ZNbwokRzQFTxrZmI8U,AP,,,,,,,,
African Services Committee,"429 W 127th St, New York, NY 10027, USA",40.8117964,-73.9544556,(212) 222-3882,,,,,,,Food bank,ChIJwTismmv2wokREj6IJQgstEw,OM,09:00 AM - 05:00 PM,09:00 AM - 05:00 PM,09:00 AM - 05:00 PM,09:00 AM - 05:00 PM,09:00 AM - 05:00 PM,closed,closed,
African Women's Dream Inc. - Food Distribution Center,"1262-22 150th St, Jamaica, NY 11435, USA",40.6725493,-73.7881849,(718) 558-6058,,,,,,,Food bank,ChIJDdBED9xmwokRot8U1PpEu9M,AP,,,,,,,,
African Womens Dream - Food Distribution Center,"159-19 Hillside Avenue, Jamaica, NY 11432, USA",40.708146,-73.802142,,,,,,,,Food bank,ChIJ5UBkwN1gwokRiYKUUsdZBIc,AP,,,,,,,,
Afscme - Food Distribution Center,"125 Barclay St, New York, NY 10007, USA",40.7142855,-74.0128496,,,,,,,,Food bank,ChIJxSQ9-htawokR_u_9WRCtSwA,AP,,,,,,,,
Agape Christian Center,"59-02 Summerfield St, Queens, NY 11385, USA",40.6982779,-73.8977049,(347) 423-6724,,,,,,,Food bank,ChIJN9mRJylcwokRII1gQ3gBxUM,OM,closed,closed,closed,closed,closed,10:00 AM - 11:30 AM,closed,
Agape Social Services Beulah Church,"956 Marcy Ave, Brooklyn, NY 11216, USA",40.6803918,-73.9464757,(347) 336-9251,,,,,,,Food bank,ChIJWSh0X4VbwokRqnm6bRIxHd0,OM,closed,10:30 AM - 02:00 PM,closed,10:30 AM - 02:00 PM,closed,closed,closed,
Agatha House Foundation,"4471 Mundy Ln, Bronx, NY 10466, USA",40.8865032,-73.8411482,(646) 335-2334,,,,,,,Food bank,ChIJW9r7pzKNwokRxld_FbfzDoY,OM,closed,closed,closed,closed,04:30 PM - 06:30 PM,01:00 PM - 03:00 PM,closed,
Aids Center of Queens County,"62-07 Woodside Ave, Queens, NY 11377, USA",40.7440704,-73.9028941,(718) 472-9400,,,,,,,Food bank,ChIJ1ytzEh1fwokRhLPYTxtzZ0o,OM,closed,10:00 AM - 12:00 PM,closed,10:00 AM - 12:00 PM,closed,closed,closed,
Aids Center of Queens County,"1600 Central Ave, Far Rockaway, NY 11691, USA",40.6051736,-73.7522446,(718) 868-8645,,,,,,,Food bank,ChIJE6HulwFmwokRL334XZl17k8,OM,closed,closed,closed,closed,10:30-12:00,closed,closed,
Aids Center Of Queens County - Food Distribution Center,"The Contour, 97-45 Queens Blvd, Queens, NY 11374, USA",40.7295363,-73.8594667,(718) 896-2500,http://www.acqc.org/,,,,,,Food bank,ChIJxZu_0jBewokRG9Mn8GUvrFM,AP,"Monday,Closed","Tuesday,8:30 to 9AM","Wednesday,Closed","Thursday,8:30 to 9AM","Friday,Closed","Saturday,Closed","Sunday,Closed",
AIDS Center of Queens County - Food Distribution Center,"89-74 162nd St, Jamaica, NY 11432, USA",40.7047249,-73.798159,(718) 739-2525,,,,,,,Food bank,ChIJASSI2d5gwokRLsF_jWXHre8,AP,"Monday,Closed","Tuesday,9 to 11AM","Wednesday,Closed","Thursday,9 to 11AM","Friday,Closed","Saturday,Closed","Sunday,Closed",
Aids Service Center Of Lower Manhattan - Food Distribution Center,"80 Fifth Avenue, 80 5th Ave, New York, NY 10011, USA",40.735935,-73.9941,,,,,,,,Food bank,ChIJS6ztGZhZwokRVz06m8ilnog,AP,"Monday,10am to 4pm","Tuesday,10am to 4pm","Wednesday,10am to 4pm","Thursday,10am to 4pm","Friday,10am to 4pm","Saturday,10am to 4pm","Sunday,10am to 4pm",
Aids Treatment Technical Assistance Council Of N. Y. - Food Distribution Center,"108-50 62nd Dr, Flushing, NY 11375, USA",40.7359605,-73.8492486,(718) 896-4622,,,,,,,Food bank,ChIJaxRktSxewokRmb9K4n0l_M0,AP,"Monday,Closed","Tuesday,Closed","Wednesday,Closed","Thursday,Closed","Friday,Closed","Saturday,Closed","Sunday,9AM to 5PM",
Aishel Shabbat,"1002 Quentin Rd, Brooklyn, NY 11223, USA",40.6075013,-73.962747,(646) 229-1126,,,,,,,Food bank,ChIJY794XuxEwokRL-wcWcrHwDE,OM,08:00 PM - 10:00 PM,closed,closed,closed,closed,closed,closed,
All Angels Church - Food Distribution Center,"251 W 80th St, New York, NY 10024, USA",40.784962,-73.979984,(212) 362-9300,http://www.allangelschurch.com/,,,,,,Food bank,ChIJ3R-9MoZYwokRuL4L30wieno,AP,"Monday,Closed","Tuesday,8:30 to 11AM","Wednesday,Closed","Thursday,8:30 to 11AM","Friday,Closed","Saturday,Closed","Sunday,Closed",
All Nations Baptist Church of Woodhaven - Food Distribution Center,"86-74 80th St, Jamaica, NY 11421, USA",40.6917296,-73.8622247,(718) 847-4229,https://allnationsbaptist.org/food-pantry/,info@allnationsbaptist.org,,,,,Food bank,ChIJA3ag4-ZdwokRiQy_6i6BXIg,AP,closed,closed,closed,closed,closed,10:00 AM - 11:00 AM,closed,
All People's Church - Food Distribution Center,"182 Tompkins Ave, Brooklyn, NY 11206, USA",40.6928541,-73.9459398,(718) 782-3703,,,,,,,Food bank,ChIJFVqM9vJbwokRrtzAs5qPQZY,AP,,,,,,,,
All People's Church Of Apostles - Food Distribution Center,"422 Gates Ave, Brooklyn, NY 11216, USA",40.6862084,-73.9493224,(718) 387-0675,,,,,,,Food bank,ChIJM5NrIJJbwokRmSFfW4EeYwE,AP,,,,,,,,
All Saints Episcopal Church,"2329 Victory Blvd, Staten Island, NY 10314, USA",40.6116645,-74.1417835,(718) 698-1338,https://www.allsaintswillowbrook.org/,allsaintsepiscopal@me.com,,,,"Food will be given to qualified applicants during the following hours of operation:
- Wednesday from 4:00 pm to 6:00 pm
- Friday from 2:00 pm to 4:00 pm
For more information, please call the organization.",Food bank,ChIJb34w0zBMwokRD7Hry0OIvLs,AP,"Monday,Closed","Tuesday,11AM to 6AM","Wednesday,Closed","Thursday,11PM to 12AM","Friday,12AM to 6PM","Saturday,11AM to 6PM","Sunday,8AM to 10PM",
All Saints Episcopal Church - Food Distribution Center,"230 E 60th St, New York, NY 10022, USA",40.7614278,-73.9650489,(212) 758-0447,http://allsaintsnyc.org/,info@allsaintsnyc.org,rulenyc@yahoo.com,,,"Hours of Operation:
Saturday: 5:00 PM - 6:00 PM
For more information, please call.",Food bank,ChIJ4aHyC-ZYwokRtFJSK-Pw3B4,AP,,,,,,,,
All Saints Food Pantry - Food Distribution Center,"47 E 129th St, New York, NY 10035, USA",40.8084859,-73.9382037,,,,,,,,Food bank,ChIJY5_ZL3X2wokR6UfDbpRqEr0,AP,,,,,,,,
All Saints Lutheran Parish - Food Distribution Center,"585 E 163rd St, Bronx, NY 10456, USA",40.824201,-73.907829,(718) 589-6321,,,,,,,Food bank,ChIJ0YDlRkv0wokRaL3jYNrBXJk,AP,,,,,,,,
Allen A.M.E. Cathedral - Food Distribution Center,"110-31 Merrick Blvd, Queens, NY 11433, USA",40.6950479,-73.7815324,(718) 206-4600,https://www.allencathedral.org/,info@allencathedral.org,,,,"Hours of Operation:
Monday and Thursday from 11:00 AM to 1:00 PM.
For further details, kindly contact them.",Food bank,ChIJjTBARzBhwokRktbtU0SSxSI,AP,"Monday,3 to 5PM","Tuesday,Closed","Wednesday,Closed","Thursday,12 to 2PM","Friday,Closed","Saturday,Closed","Sunday,Closed",
Allen Memorial Ame Church - Food Distribution Center,"944 Rogers Ave, Brooklyn, NY 11226, USA",40.647197,-73.952403,(718) 282-7860,,,,,,,Food bank,ChIJqTty9ENbwokR0MArhqnPH-w,AP,,,,,,,,
Allen Outreach Ministry Feeding Program,"111-54 Merrick Blvd, Jamaica, NY 11433, USA",40.6928912,-73.7805579,(718) 465-2802,,,,,,,Food bank,EisxMTEtNTQgTWVycmljayBCbHZkLCBKYW1haWNhLCBOWSAxMTQzMywgVVNBIjASLgoUChIJSVMbrzFhwokRa_ZvRW3ELnQQNioUChIJLxYWrU9hwokRF23gpprefSc,OM,05:00 PM - 07:00 PM,closed,closed,10:00 AM - 02:00 PM,closed,closed,closed,
Almacen de Jose - Food Distribution Center,"4717 7th Ave, Brooklyn, NY 11220, USA",40.643562,-74.004394,+1 718-435-4914,,,,,,,Food bank,ChIJtW9qOspawokRDufIdosw0Xo,AP,,,,,,,,
Altrmont/820 River Street Inc. - Food Distribution Center,"108-30 Sutphin Blvd, Jamaica, NY 11435, USA",40.6921684,-73.7988892,(718) 658-0581,,,,,,,Food bank,ChIJo3PrW9RgwokRzW9Ls2DWEJI,AP,,,,,,,,
American Jewish World Service - Food Distribution Center,"45 W 36th St., New York, NY 10018, USA",40.7506766,-73.9855374,,http://www.ajws.org/,ajws@ajws.org,,,,,Food bank,ChIJq6WQKapZwokRYw_j9rj9fAk,AP,,,,,,,,
American Red Cross In Greater Ny - Food Distribution Center,"150 Amsterdam Ave, New York, NY 10023, USA",40.775417,-73.984572,,,,,,,,Food bank,ChIJ27pnc2BYwokR9Kis0xA2Mhk,AP,,,,,,,,
American Women's Economic Development Corporation - Food Distribution Center,"216 E 45th St, New York, NY 10017, USA",40.7520742,-73.9721749,(917) 368-6100,,,,,,,Food bank,ChIJcSeKxgJZwokRKTUz-LFGLsw,AP,,,,,,,,
Ammi Evangelical Baptist Church - Food Distribution Center,"1799 Flatbush Ave, Brooklyn, NY 11210, USA",40.626318,-73.940413,(718) 692-3925,,,,,,,Food bank,ChIJs3n86atEwokRRyZM8BJVYss,AP,"Monday,Closed","Tuesday,Closed","Wednesday,Closed","Thursday,Closed","Friday,Closed","Saturday,12:30 to 2PM","Sunday,Closed",
Angela House - Food Distribution Center,"3323 Steuben Ave, Bronx, NY 10467, USA",40.878985,-73.881373,(718) 231-7592,,,,,,,Food bank,ChIJRWW3ywzzwokRzU2WxWv5zsc,AP,,,,,,,,
Apna Brighton Beach Food Pantry,"211 Neptune Ave, Brooklyn, NY 11235, USA",40.5819631,-73.9614028,(718) 513-4700,http://www.apnabrooklyn.com/,info@apnabrooklyn.com,,,,,Food bank,ChIJXZ3h8UJEwokRrgdTwaNxCRk,AP,"Monday,9AM to 5PM","Tuesday,9AM to 5PM","Wednesday,9AM to 5PM","Thursday,9AM to 5PM","Friday,9AM to 5PM","Saturday,9AM to 5PM","Sunday,Closed",
Apostolic Assembly of Jesus Christ - Food Distribution Center,"3808 Church Ave, Brooklyn, NY 11203, USA",40.6509902,-73.9415956,(718) 669-0739,https://www.freefood.org/l/ny_11203_apostolic-assembly-of-jesus-christ#,,,,,"Every Saturday from 1:00 p.m. to 3:00 p.m. For further information, please call.",Food bank,ChIJ_3htsmBbwokRyjX5hnOldK4,AP,"Monday,Closed","Tuesday,Closed","Wednesday,Closed","Thursday,Closed","Friday,Closed","Saturday,1 to 3PM","Sunday,Closed",
Apostolic Assembly Of Jesus Christ Inc. - Food Distribution Center,"187 E 38th St, Brooklyn, NY 11203, USA",40.65262,-73.941762,,,,,,,,Food bank,ChIJgZPp1GBbwokRO7XAjtSiZoo,AP,,,,,,,,
Argus Community Inc. - Food Distribution Center,"760 E 160th St, Bronx, NY 10456, USA",40.8203261,-73.9047409,(718) 401-5760,http://www.arguscommunity.org/,info@arguscommunity.org,,,,,Food bank,ChIJW6grp7P1wokR8Oev_x91CX4,AP,,,,,,,,
Ash-Shifaa Inc. - Food Pantry,"2269 Crotona Ave, Bronx, NY 10457, USA",40.8516367,-73.8850547,(646) 353-0859,,,,,,,Food bank,ChIJf_oiW4b0wokRFQSY1rjrEEU,AP,"Monday,1 to 5PM","Tuesday,1 to 5PM","Wednesday,1 to 5PM","Thursday,1 to 5PM","Friday,2 to 5PM","Saturday,Closed","Sunday,Closed",
Asian Americans For Equality Inc - Food Distribution Center,"111 Division St, New York, NY 10002, USA",40.714243,-73.992299,+1 212-964-2288,http://www.aafe.org/,,,,,,Food bank,ChIJQZ8e-ShawokRwxzmWgCQO3c,AP,,,,,,,,
Association To Benefit Children (abc) - Food Distribution Center,"419 East 86th St, New York, NY 10028, USA",40.776764,-73.94839,(212) 831-1322,,,,,,,Food bank,ChIJIy69erpYwokRqRJ98hsKBhc,AP,,,,,,,,
Assumption Saint Paul - Food Pantry,"53 St Marks Pl, Staten Island, NY 10301, USA",40.6471456,-74.0848571,(718) 727-2672,https://www.assumptionstpaulsi.com/food-pantry,assumptionstpaulsi@gmail.com,,,,"Pantry Opening Hours:
Every Wednesday from 1:00 p.m. to 2:00 p.m.
Mobile Food Pantry Distribution Hours in the following Locations:
- First Tuesday at St. Peter's, 53 St. Mark's, from 10:30 a.m. to 11:00 a.m.
- Monday and Tuesday at St. Peter's, 53 St. Mark's Place, from 10:30 a.m. to 11:00 a.m.
- Third Tuesday at St. Peter St. Paul School, 145 Clinton Ave., from 10:30 a.m. to 11:00 a.m.
- Wednesday, Thursday, and Tuesday when needed at St. Peter's School, 145 Clinton Ave., from 10:30 a.m. to 11:00 a.m.
Requirements Needed:
- Bring Photo ID
- One service per household per month
- You must be at least 18 years old to receive food.
Languages:
- Spanish
Please call for further information.",Food bank,ChIJ__8vFilOwokRktQRLcPDQYQ,AP,,,,,,,,
Astor Child Guidance Center - Food Distribution Center,"750 Tilden St, Bronx, NY 10467, USA",40.8767729,-73.8627891,(718) 231-3400,,,,,,,Food bank,ChIJu4SOnD_zwokR4MynXU1IDDw,AP,,,,,,,,
Astoria - Food Distribution Center,"4-25 Astoria Blvd, Astoria, NY 11102, USA",40.7730694,-73.9329291,,,,,,,,Food bank,ChIJsc2-fUxfwokRFVGZOCb5uVk,AP,,,,,,,,
Astoria Food Pantry,"25-82 Steinway St, Long Island City, NY 11103, USA",40.7660749,-73.9135123,,http://astoriafoodpantry.com/,astoriafoodpantry@gmail.com,,,,,Food bank,ChIJs3HN62xfwokRLS7PC2pTTqk,AP,"Monday,8AM to 12PM, 6 to 8PM","Tuesday,Closed","Wednesday,10AM to 4PM","Thursday,7 to 8:30PM","Friday,Closed","Saturday,8AM to 2PM","Sunday,Closed",
Atonement Lutheran Church,"30-61 87th St, East Elmhurst, NY 11369, USA",40.7580608,-73.8811177,(718) 639-6074,,,,,,,Food bank,ChIJpUZBcaJfwokR_xSIJnzslLU,OM,closed,closed,closed,8:00-9:00AM,closed,,closed,
B-healthy! - Food Distribution Center,"260 St James Pl, Brooklyn, NY 11238, USA",40.6824446,-73.9638911,(917) 312-7184,,,,,,,Food bank,ChIJfQB5OKNbwokRhLTmd5v7nFE,AP,,,,,,,,
B.f.f.y Commodity Supplemental Food Program - Food Distribution Center,"89-56 162nd St, Queens, NY 11432, USA",40.7050569,-73.798407,(718) 523-2220,,,,,,,Food bank,ChIJEZ_u3N5gwokRrSUD9GR3h_k,AP,,,,,,,,
B.t. Roberts Food Pantry - Food Distribution Center,"120 16th St, Brooklyn, NY 11215, USA",40.6658087,-73.9918477,(347) 529-4616,,,,,,,Food bank,ChIJBaXc4eRawokRQaA0mlzgK9A,AP,,,,,,,,
Bailey House Inc. Adult & Family,"1751 Park Ave, New York, NY 10035, USA",40.8013633,-73.9403842,(929) 290-3969,,,,,,,Food bank,ChIJmVpyaAn2wokRCvg5EWwmKHo,OM,closed,closed,01:00 PM - 04:00 PM,closed,closed,closed,closed,
Bank Street Head Start - Food Distribution Center,"University Hall, 113 E 13th St, New York, NY 10003, USA",40.733371,-73.9890135,,http://www.bankstreet.edu/,helpdesk@bankstreet.edu,,,,,Food bank,ChIJzfOgLJlZwokRa8YcbAZxi7g,AP,,,,,,,,
Basil,"345 Brehaut Ave, Staten Island, NY 10307, USA",40.5110484,-74.2380764,,,,,,,,Food bank,ChIJ5zSoeBPLw4kR-crsxHXDjiY,AP,,,,,,,,
Basilica of Our Lady of Perpetual Help,"545 60th St, Brooklyn, NY 11220, USA",40.6388378,-74.0145427,(347) 603-3738,,,,,,,Food bank,ChIJIcST5UxFwokRhJbv0o_OA2w,OM,closed,closed,closed,closed,closed,10:30 AM - 12:00 PM,closed,
Battalion Pentacostal - Food Distribution Center,"454 Beach 67th St, Arverne, NY 11692, USA",40.594258,-73.7960993,(718) 634-7172,,,,,,,Food bank,ChIJAS-F7GFowokR0SOnATOHd9I,AP,"Monday,Closed","Tuesday,Closed","Wednesday,12 to 1:30PM","Thursday,Closed","Friday,Closed","Saturday,Closed","Sunday,Closed",
Bay Ridge Community Service Center - Food Distribution Center,"411 Ovington Ave, Brooklyn, NY 11209, USA",40.6337553,-74.0234482,(718) 748-0650,http://www.bayridgecenter.com/,,,,,,Food bank,ChIJq6q6yFBFwokRTPi5xpGhgK8,AP,"Monday,8AM to 4PM","Tuesday,8AM to 4PM","Wednesday,8AM to 4PM","Thursday,8AM to 4PM","Friday,8AM to 4PM","Saturday,Closed","Sunday,Closed",
Bay View Houses Resident Association,"2085 Rockaway Pkwy, Brooklyn, NY 11236, USA",40.6330489,-73.8867909,,,,,,,,Food bank,ChIJBXh72iddwokR5ujGsgDD-80,OM,closed,closed,closed,10:00 AM - 01:00 PM,closed,closed,closed,
Be The Catalyst - Food Distribution Center,"60 W 13th St, New York, NY 10011, USA",40.736284,-73.996774,+1 917-658-9151,,,,,,,Food bank,ChIJ71L1xpdZwokRC6e4qEDMXFs,AP,,,,,,,,
"Bec New Communities, Inc. - Food Distribution Center","67 Hanson Pl, Brooklyn, NY 11217, USA",40.685615,-73.9749889,(718) 858-8803,,,,,,,Food bank,ChIJBZnsxbFbwokRcAmnFlpA2uE,AP,,,,,,,,
Bed Stuy's Project Re-generation - Food Distribution Center,"679 Lafayette Ave, Brooklyn, NY 11216, USA",40.6905311,-73.9467833,(718) 684-1014,http://www.pr-g.org/,,,,,,Food bank,ChIJqxnlTI1bwokROt1JmGWq22U,AP,,,,,,,,
Bed-Stuy - Food Distribution Center,"2750 Throop Ave, Brooklyn, NY 11206, USA",40.692358,-73.942807,,,,,,,,Food bank,ChIJpUf7dvNbwokR315tJbs2oNI,AP,,,,,,,,
Bedford Central Presbyterian Church - Food Distribution Center,"1200 Dean St, Brooklyn, NY 11216, USA",40.6766445,-73.9496051,(718) 467-0740,,,,,,,Food bank,ChIJQekuZJtbwokRv6WHKYCQyDE,AP,,,,,,,,
Belize NYC,"1113 Grant Ave, Bronx, NY 10456, USA",40.8311874,-73.9167618,,http://www.belizenyc.com/,,,,,,Food bank,ChIJXTOwN-X1wokRY4hZRfJqC4E,AP,"Monday,Closed","Tuesday,6PM to 12AM","Wednesday,6PM to 12AM","Thursday,6PM to 12AM","Friday,6PM to 12AM","Saturday,6PM to 12AM","Sunday,Closed",
Bensonhurst Council of Jewish Organizations - Food Distribution Center,"8635 21st Ave, Brooklyn, NY 11214, USA",40.6023475,-73.9966579,+1 718-333-1834,,,,,,,Food bank,ChIJDdmQ6QhFwokR6rIhCuVTrIM,AP,closed,10:00 AM - 04:00 PM,closed,closed,closed,closed,,
Beraca SDA Church,"91-19 191st St, Queens, NY 11423, USA",40.7105325,-73.7684402,(347) 484-0913,,,,,,,Food bank,ChIJebRF_2xhwokRqjNO-QghIbA,OM,closed,closed,10:00 AM - 11:00 AM,closed,closed,closed,closed,
Berean Baptist Chruch - Food Distribution Center,"49 Bergen St, Brooklyn, NY 11201, USA",40.6872974,-73.9912714,+1 718-778-5797,http://www.bereanbaptist.org/,info@bereanbaptist.org,,,,,Food bank,ChIJiekfKU5awokRNsXpkZ-_IQs,AP,,,,,,,,
Berean Baptist Church - Food Distribution Center,"1641 Bergen St, Brooklyn, NY 11213, USA",40.675166,-73.928604,+1 718-778-5797,,,,,,,Food bank,ChIJK2zct3tcwokRYmJPbrLLz8o,AP,,,,,,,,
Beth Hark Christian Counseling - Food Distribution Center,"1832 Madison Ave, New York, NY 10035, USA",40.8023207,-73.9434269,(212) 860-1523,https://www.bethharkccc.org/,michellerobinson@bethelga.org,,,,"Hours of Operation:
- Soup Kitchen: Wednesday and Thursday from 12:00 PM to 2:00 PM
- Food Pantry: Tuesday from 1:00 PM to 5:00 PM
Please note that an ID is required for the first visit. For more information, please call the organization.",Food bank,ChIJ3e4Y6A72wokR7XkQ__7Aw74,AP,-,12:00 PM - 03:30 PM,closed,closed,closed,closed,closed,
Bethanie French Seventh Day Adventist Church - Food Pantry,"2059 Bedford Ave, Brooklyn, NY 11226, USA",40.6544041,-73.9559831,+1 718-600-2334,,,,,,,Food bank,ChIJq6quUWpbwokRGdWWmiTUv3E,AP,"Monday,Closed","Tuesday,Closed","Wednesday,Closed","Thursday,Closed","Friday,2 to 4pm","Saturday,Closed","Sunday,Closed",
Bethany Baptist Church Of Jamaica - Food Distribution Center,"110-47 157th St, Queens, NY 11433, USA",40.6905147,-73.7921338,(718) 659-6099,,,,,,,Food bank,ChIJde6G_iphwokRNdDoqFF-Rbw,AP,,,,,,,,
Bethany United Methodist Church - Food Distribution Center,"1208 St Johns Pl, Brooklyn, NY 11213, USA",40.6706776,-73.9382508,(718) 774-6753,,,,,,,Food bank,ChIJw4tuN4BbwokRUlRTiUNMBLM,AP,"Monday,Closed","Tuesday,12:30 to 2:30PM","Wednesday,Closed","Thursday,Closed","Friday,Closed","Saturday,Closed","Sunday,Closed",
Bethel AME Church,"50 W 132nd St, New York, NY 10037, USA",40.8093494,-73.9407352,(646) 406-1359,,,,,,,Food bank,ChIJ7YdiZ3T2wokR_noIx7R7xtI,OM,closed,closed,closed,09:30 AM - 11:30 AM,closed,closed,closed,
Bethel Ame Church - Food Distribution Center,"60 W 132nd St, New York, NY 10037, USA",40.811488,-73.9410338,(212) 862-0100,http://famebethel.com/,info@famebethel.org,,,,"Hours of Operation:
Tuesday and Thursday from 9:30 AM to 11:30 AM
Referral and ID are required.
For more information, please call.",Food bank,ChIJyzTzb3T2wokR64ZMy1zcttw,AP,"Monday,Closed","Tuesday,Closed","Wednesday,Closed","Thursday,9:30 to 11:30AM","Friday,Closed","Saturday,Closed","Sunday,Closed",
Bethel AME Church - Food Distribution Center,"2-15 Beach 77th St, Far Rockaway, NY 11692, USA",40.5888,-73.804656,(917) 548-7866,,,,,,,Food bank,ChIJy066HV1owokRM9xDbVLKMO4,AP,"Monday,Closed","Tuesday,Closed","Wednesday,11AM to 1PM","Thursday,Closed","Friday,Closed","Saturday,Closed","Sunday,Closed",
Bethel Community Outreach,"344 Tompkins Ave, Brooklyn, NY 11216, USA",40.6848622,-73.9446657,(917) 334-9905,,,,,,,Food bank,ChIJn6viLIxbwokRo4wTv9rB06g,OM,closed,07:00 PM - 09:00 PM,closed,closed,07:00 PM - 09:00 PM,closed,closed,
Bethel Gospel Tabernacle Church - Food Distribution Center,"110-25 Guy R Brewer Blvd, Jamaica, NY 11433, USA",40.692739,-73.788107,(718) 291-4452,,,,,,,Food bank,ChIJJ62Xpy5hwokRb-6zT671h1o,AP,"Monday,Closed","Tuesday,12 to 2PM","Wednesday,9:30AM to 12PM","Thursday,Closed","Friday,12 to 2PM","Saturday,Closed","Sunday,Closed",
Bethel Holy Church - Food Distribution Center,"922 St Nicholas Ave, New York, NY 10032, USA",40.83149,-73.940808,(212) 283-9407,,,,,,,Food bank,ChIJ8-5ZOYH2wokRKtM2GBAoxzc,AP,,,,,,,,
"Bethel Mission Church, Inc. - Food Distribution Center","106-15 154th St, Queens, NY 11433, USA",40.695981,-73.799271,(718) 658-2484,,,,,,"Phone: (718) 291-8419
Soup Kitchen Hours: Between 12:00 PM and 1:00 PM on Monday to Friday
Food Pantry Hours: Between 10:00 AM and 12:00 PM on the 2nd and 4th Saturday of the month
For more information, please call them.",Food bank,ChIJIUyAwtZgwokRHWY8w2kfVTM,AP,,,,,,,,
Bethel Prayer Ministries,"4262 3rd Ave., Bronx, NY 10457, USA",40.8428573,-73.8951511,(646) 228-4510,,,,,,,Food bank,ChIJkxQycWT0wokRQ0qSmeqowRg,OM,closed,closed,closed,closed,closed,09:00 AM - 12:00 PM,closed,
Bethel SDA-Food Pantry & Soup Kitchen,"457 Grand Ave, Brooklyn, NY 11238, USA",40.6817564,-73.9611929,(718) 783-3630,,,,,,,Food bank,ChIJVVUFwaJbwokRJVqZXp_UVe0,AP,,,,,,,,
Bethesda Missionary Baptist Church,"179-09 Jamaica Ave, Jamaica, NY 11432, USA",40.7081441,-73.7810719,(917) 365-7770,,,,,,,Food bank,ChIJGRkxpBdhwokRiXdfzCiOH_I,OM,closed,closed,07:30 AM - 10:00 AM,closed,closed,closed,closed,
Bethlehem Nation's Food Pantry,"1962 Linden Blvd, Brooklyn, NY 11207, USA",40.6588324,-73.8890665,(347) 304-8516,,,,,,,Food bank,ChIJo4msH_5cwokRb_uYV0JzY6g,OM,closed,closed,closed,closed,closed,10:00 AM - 12:00 PM,closed,
Bettances Health Unit - Food Distribution Center,"280 Henry St, New York, NY 10002, USA",40.7136702,-73.9837398,(212) 227-9001,,,,,,,Food bank,ChIJJS2A2ipawokR-F02qRg9Rgw,AP,,,,,,,,
Beyond Hunger Emergency Food Pantry - Food Distribution Center,"2241 Church Ave, Brooklyn, NY 11226, USA",40.6506792,-73.9573622,(718) 282-3082,https://camba.org/programs/beyond-hunger-emergency-food-pantry/,info@camba.org,,,,,Food bank,ChIJZ1i3WkBbwokR09rNs7d9h3o,AP,,,,,,,,
Beyond Shelter Coalition - Food Distribution Center,"7 W 83rd St, New York, NY 10024, USA",40.7837544,-73.9714327,,,,,,,,Food bank,ChIJEYidTYVYwokRqMiicubUT8E,AP,,,,,,,,
BFFY - Our Lady of Lourdes Outreach - Food Distribution Center,"92-96 220th St, Jamaica, NY 11428, USA",40.7229172,-73.7364718,(718) 479-0924,http://www.ourladyoflourdesqvny.org/,,,,,"Food Pantry
Hours of operation: Wednesday 1:00 pm - 4:00 pm (except 5th Wednesday of the month).",Food bank,ChIJl6Nfjy1iwokRD5sdPs9yHQ4,AP,"Monday,9AM to 8PM","Tuesday,9AM to 8PM","Wednesday,9AM to 8PM","Thursday,9AM to 8PM","Friday,9AM to 8PM","Saturday,9AM to 8PM","Sunday,10AM to 2PM",
Bffy Rockaway Senior Center - Food Distribution Center,"313 B86St, Rockaway Beach, NY 11693, USA",40.5867004,-73.8115005,,,,,,,,Food bank,ChIJUedcDkRowokR3_GCBlVLeiE,AP,,,,,,,,
BFFY-St. Rose of Lima Saint Vincent de Paul - Food Distribution Center,"130 Beach 84th St, Far Rockaway, NY 11693, USA",40.5867648,-73.8095871,(718) 634-7394,,,,,,,Food bank,ChIJLz3tiERowokRQ79b2kcgPk8,AP,"Monday,Closed","Tuesday,10AM to 12PM","Wednesday,Closed","Thursday,Closed","Friday,10AM to 12PM","Saturday,Closed","Sunday,Closed",
Bible Faith Tabernacle - Food Distribution Center,"1368 St Johns Pl, Brooklyn, NY 11213, USA",40.6704651,-73.9330164,(347) 756-9546,,,,,,,Food bank,ChIJ4bKuTH5cwokROl7x6pL4ZiU,AP,,,,,,,,
Big Sisters - Food Distribution Center,"117-08 Merrick Blvd, Jamaica, NY 11434, USA",40.6867025,-73.7746964,(718) 723-1119,,,,,,,Food bank,ChIJPRdV2jRhwokR9eCuS1gKfHU,AP,"Monday,Closed","Tuesday,Closed","Wednesday,Closed","Thursday,11AM to 1PM","Friday,Closed","Saturday,Closed","Sunday,Closed",
Bikur Cholim of Staten Island - Food Distribution Center,"46 Birchard Ave, Staten Island, NY 10314, USA",40.6028713,-74.1354195,,,,,,,,Food bank,ChIJ5Z1EJ0ZMwokRtUXJg9ptP_0,AP,,,,,,,,
"Binding Together, Inc. - Food Distribution Center","50 Broad St, New York, NY 10004, USA",40.7056768,-74.011594,(212) 742-0020,,,,,,,Food bank,ChIJa5PSuRZawokRVEDh1G9-WaA,AP,,,,,,,,
Black Forum of Co-op City Emergency Food Pantry,"920 Baychester Ave Bldg 1A, Bronx, NY 10475, USA",40.877241,-73.8331635,(718) 320-8035,https://black-forum-of-co-op-city-food-pantry.business.site/,coopcityblackforum@gmail.com,,,,,Food bank,ChIJQwxw58WMwokRfGetJKGJDTo,AP,"Monday,Closed","Tuesday,11AM to 12:45PM","Wednesday,Closed","Thursday,11AM to 12:45PM","Friday,11AM to 12:45PM","Saturday,Closed","Sunday,Closed",
Black United Fund Of New York - Food Distribution Center,"2271 Adam Clayton Powell Jr Blvd, New York, NY 10030, USA",40.814307,-73.9440519,,,,,,,,Food bank,ChIJo4p7enH2wokR44UOIApXn0g,AP,,,,,,,,
Black Veterans for Social Justice,"665 Willoughby Ave, Brooklyn, NY 11206, USA",40.6947272,-73.9426377,(718) 852-6004,http://www.bvsj.org/,admin@bvsj.org,,,,"Hours of Operation:
Monday to Friday: 10:00 AM - 3:30 PM
For more information, please call.",Food bank,ChIJJ3Yl_fNbwokRZJ8mKrEYLx8,OM,closed,closed,closed,closed,08:00 AM - 09:00 AM,closed,closed,
Blanche Memorial Church,"109-74 Sutphin Blvd, Jamaica, NY 11435, USA",40.6897016,-73.7971438,(718) 264-7121,,,,,,,Food bank,ChIJD_JFI9VgwokRp2FTNEj0Vm8,OM,closed,9:30 AM - 10:30 AM,closed,closed,closed,closed,closed,
Blessed Assurance Church of God,"2093 Fulton St, Brooklyn, NY 11233, USA",40.6782996,-73.9093279,(347) 965-1725,,,,,,,Food bank,ChIJnZ3frUNcwokRcZD0s1jL5RI,OM,closed,closed,closed,closed,closed,07:00 AM - 11:00 AM,closed,
Blessed Sacrament Church - Food Distribution Center,"198 Euclid Ave, Brooklyn, NY 11208, USA",40.6836551,-73.8744335,(718) 827-1200,http://blessedsacrament-brooklyn.org/,parishcentral@desalesmedia.org,,,,,Food bank,ChIJNeAr9sZdwokRxoVUZTKHW6Y,AP,"Monday,Closed","Tuesday,Closed","Wednesday,9:30AM to 12PM","Thursday,Closed","Friday,Closed","Saturday,Closed","Sunday,Closed",
Blessed Virgin Mary St. Mary's Winfield,"70-31 48th Ave, Queens, NY 11377, USA",40.7378853,-73.8931652,(917) 751-2162,,,,,,,Food bank,ChIJ12h-6v5ewokR2ibrrzg44Fg,OM,closed,closed,closed,09:30 AM - 12:00 PM,closed,closed,closed,
Block Projek - Food Distribution Center,"725 Fox St, Bronx, NY 10455, USA",40.814936,-73.899354,(917) 680-6443,http://www.theblkprojek.org/,admin@theblkprojec.org,,,,,Food bank,ChIJtdSmNa71wokRAyimGQ7haVM,AP,,,,,,,,
"Bloomingdale Family Program, Inc. - Food Distribution Center","125 W 109th St # 2, New York, NY 10025, USA",40.8019152,-73.9629094,(212) 663-4067,,,,,,,Food bank,ChIJD8De0zz2wokRU532pVQI1P4,AP,,,,,,,,
Bnai Raphael Chesed Organization,"3846 Flatlands Ave, Brooklyn, NY 11234, USA",40.61956,-73.9375091,(718) 951-6059,,,,,,,Food bank,ChIJq4Zw3adEwokRRFe7EMwonsk,OM,10:00 AM - 04:00 PM,10:00 AM - 04:00 PM,10:00 AM - 04:00 PM,10:00 AM - 06:00 PM,closed,closed,closed,
Bnai Raphael Chesed Organization - Food Distribution Center,"1741 McDonald Ave, Brooklyn, NY 11230, USA",40.6105195,-73.9729528,(718) 951-2302,http://bnairaphael.org/,,,,,,Food bank,ChIJ_ZJwdOZEwokRg6KspvjZRDE,AP,"Monday,10AM to 6PM","Tuesday,10AM to 6PM","Wednesday,10AM to 6PM","Thursday,Closed","Friday,Closed","Saturday,Closed","Sunday,Closed",
Bobbie's Place - Food Distribution Center,"114th St, South Richmond Hill, NY 11419, USA",40.6855968,-73.8285971,(718) 677-4399,,,,,,,Food bank,ChIJexHBt09nwokRW5HczJi0uSs,AP,,,,,,,,
Bond Street Center - Food Distribution Center,"39-40 Bond St, Brooklyn, NY 11217, USA",40.6884523,-73.983656,(718) 935-0439,,,,,,,Food bank,ChIJ9UIdKE1awokRkGdFymZ-iBw,AP,,,,,,,,
BOOM! Health - Food Distribution Center,"540 E Fordham Rd, Bronx, NY 10458, USA",40.8591989,-73.8870801,(718) 295-5605,,,,,,,Food bank,ChIJO1CPPID0wokRTuweXK5Kkog,AP,,,,,,,,
BOOM! Health Wellness Center - Food Pantry,"3144 3rd Ave., Bronx, NY 10451, USA",40.8221038,-73.9104924,(718) 295-2666,https://www.boomhealth.org/solutions/food-and-nutrition,ysantana@themomentumproject.org,,,,,Food bank,ChIJVVUFEbX1wokRbL-phTJfRz8,AP,09:30 AM - 04:00 PM,09:30 AM - 04:00 PM,09:30 AM - 04:00 PM,09:30 AM - 04:00 PM,09:30 AM - 04:00 PM,closed,closed,
Boom!Health Hrc - Food Pantry,"226 E 114th St, New York, NY 10029, USA",40.7939083,-73.9340113,(718) 295-2666,,,,,,,Food bank,ChIJuT3uuP31wokRDU3WqyWVcuU,AP,"Monday,12 to 1PM","Tuesday,Closed","Wednesday,Closed","Thursday,Closed","Friday,Closed","Saturday,Closed","Sunday,Closed",
Boone Health - Food Distribution Center,"260 E 143rd St, Bronx, NY 10451, USA",40.815299,-73.9246183,(718) 292-7718,,,,,,,Food bank,ChIJLeC_rdr1wokR_cjQ4sS0v34,AP,,,,,,,,
Bowery Mission - Food Distribution Center,"227 Bowery, New York, NY 10002, USA",40.7219936,-73.9929826,(212) 674-3456,http://www.bowery.org/,info@bowery.org,volunteer@bowery.org,https://bowery.volunteerhub.com/?format=0&filter={},,"The Bowery Mission offers hot meals, shelter, clothing, showers, and medical/dental exams. To learn more, please contact them. Our mission is to serve the people of New York City who are struggling with poverty, hopelessness, and various dependencies. We aim to transform their lives through the power of Jesus Christ, bringing them hope, joy, lasting productivity, and eternal life. * *From the Bowery Mission Food Programs website.",Food bank,ChIJjxdH34VZwokRfA81dQti6xM,AP,"Monday,9 to 11AM, 1 to 2PM, 5 to 6PM","Tuesday,9 to 11AM, 1 to 2PM, 5 to 6PM","Wednesday,9 to 11AM, 1 to 2PM, 5 to 6PM","Thursday,9 to 11AM, 1 to 2PM, 5 to 6PM","Friday,9 to 11AM, 1 to 2PM, 5 to 6PM","Saturday,8 to 9AM, 1 to 2PM, 5 to 6PM","Sunday,8 to 9AM, 1 to 2PM, 5 to 6PM",
Brc - Supported Housing Program - Food Distribution Center,"2254 Cedar Ave, Bronx, NY 10468, USA",40.8614259,-73.9116587,,,,,,,,Food bank,ChIJ-f___4TzwokREHVukE-QtpU,AP,,,,,,,,
Brc Human Services Corp - Food Distribution Center,"131 W 25th St, New York, NY 10001, USA",40.7448557,-73.9932174,(212) 533-5700,http://www.brc.org/,,,,,,Food bank,ChIJPVgIGKVZwokRFf3GuQ_fxu8,AP,,,,,,,,
Bread Of Life Food Pantry,"38-49 12th St, Queens, NY 11101, USA",40.7568946,-73.9418259,(718) 784-4673,,,,,,,Food bank,ChIJAQANKtJYwokRhRIGYQa7IBA,AP,"Monday,Closed","Tuesday,12 to 3PM","Wednesday,11AM to 2PM","Thursday,12 to 3PM","Friday,Closed","Saturday,Closed","Sunday,Closed",
Bread of Life Pantry - Food Pantry,"1104 Elder Ave, Bronx, NY 10472, USA",40.8263314,-73.8785276,(914) 315-7060,https://www.facebook.com/BLPMission/,,,,,,Food bank,ChIJbWiQIfv0wokRzmC50CeS4XY,AP,"Monday,Closed","Tuesday,Closed","Wednesday,Closed","Thursday,Closed","Friday,Closed","Saturday,1:30 to 2:15PM","Sunday,Closed",
Bridge Street Ame Church - Food Distribution Center,"277 Stuyvesant Ave, Brooklyn, NY 11221, USA",40.6851684,-73.932145,(718) 452-3936,http://www.bridgestreetbrooklyn.org/,,,,,,Food bank,ChIJMS3URXRcwokRWF_E2aKZtj0,AP,,,,,,,,
Brinn Associates - Food Distribution Center,"953 Southern Blvd, Bronx, NY 10459, USA",40.8214101,-73.8918401,(718) 542-2250,,,,,,,Food bank,ChIJgT7E1Kr1wokRsmvTfRqg2gg,AP,,,,,,,,
Broadway Community Inc.,"601 W 114th St, New York, NY 10025, USA",40.8038206,-73.9651341,(212) 864-6100,broadwaycommunity.org,smorris@foodbanknyc.org,volunteer@broadwaycommunity.org,https://broadwaycommunity.org/volunteer,,"Community Dinner:
Monday through Friday: 4:30pm - 6:00pm
Community Pantry:
Registration:
Monday, Tuesday, Thursday, Friday: 3:30pm - 5:00pm
Wednesday: 11:00am - 1:00pm
Pantry Shopping:
Tuesday, Thursday: 11:00am - 3:30pm
Wednesday: 1:00pm - 8:00pm
Saturday: 11:00am - 2:00pm
Visit our website for more information!",Food bank,ChIJDWzIrT72wokR5PfQIlk4F9Q,OM,12:30 PM - 02:00 PM,closed,12:30 PM - 02:00 PM,closed,12:30 PM - 2:00 PM,#####,closed,
Broadway Housing Communities - Food Distribution Center,"583 Riverside Dr, New York, NY 10031, USA",40.8212913,-73.9570876,(212) 568-2030,https://www.broadwayhousing.org/,infor@bhc.org,,,,,Food bank,ChIJERBVzmf2wokRauQa0p2sUFk,AP,,,,,,,,
Bronx And Manhattan Land Trusts - Food Distribution Center,"232 E 11th St, New York, NY 10003, USA",40.7322535,-73.9874105,(212) 228-5842,,,,,,,Food bank,ChIJVVVVlZ5ZwokR5yZT4O25I0M,AP,,,,,,,,
Bronx Bethany Community Center - Food Distribution Center,"964 E 227th St, Bronx, NY 10466, USA",40.8865215,-73.8517655,(718) 619-3480,http://www.bbccnyc.com/,dvassel@bxbethany.com,,,,,Food bank,ChIJ3xEcpC_zwokR0Z2jwGH7k_c,AP,,-,9:00 AM - 11:00 AM,3:00 PM - 6:00 PM,-,-,-,
Bronx Food Pantry,"810 Hewitt Pl, Bronx, NY 10459, USA",40.8187337,-73.8998844,,,,,,,,Food bank,ChIJf45nkq31wokR2f-iRoT2SVY,AP,,,,,,,,
Bronx Full Gospel Tabernacle Inc.,"4221 Park Ave, Bronx, NY 10457, USA",40.8445435,-73.8996755,(518) 836-9906,,,,,,,Food bank,ChIJiTy67GX0wokRdDfshXcY9ck,OM,closed,closed,closed,closed,closed,08:00 AM - 09:00 AM,closed,
Bronx SDA Church,"1695 Washington Ave, Bronx, NY 10457, USA",40.8378734,-73.9012143,(917) 435-8643,,,,,,,Food bank,ChIJuekjAmj0wokRzCHORKa89sI,OM,closed,closed,closed,11:00 AM - 06:00 PM,closed,closed,closed,
Bronx Temple SDA Community Services,"495 Willis Ave, Bronx, NY 10455, USA",40.8139815,-73.9187996,(347) 869-0068,,,,,,,Food bank,ChIJR7XB-MX1wokRuemWzJFTDHQ,OM,11:00 AM - 01:00 PM,closed,11:00 AM - 01:00 PM,12:00 PM - 01:00 PM,closed,closed,closed,
Bronx Works The Living Room,"800 Barretto St, Bronx, NY 10474, USA",40.8156228,-73.8894092,(646) 334-3561,,,,,,,Food bank,ChIJuUwGF6r1wokR2eVV0n5O8x8,OM,08:30 AM - 09:30 AM,08:30 AM - 09:30 AM,01:30 PM - 02:20 PM,08:30 AM - 09:30 AM,08:30 AM - 09:30 AM,08:30 AM - 09:30 AM,08:30 AM - 09:30 AM,
Bronx Youth Services Corp/gyc - Food Distribution Center,"2530 Jerome Ave, Bronx, NY 10468, USA",40.864718,-73.899171,,,,,,,,Food bank,ChIJf0zvR4bzwokRjrRy1M968Bs,AP,,,,,,,,
BronxWorks Heights Senior Center,"200 W Tremont Ave, Bronx, NY 10453, USA",40.8484691,-73.9171034,(646) 988-3606,,,,,,,Food bank,ChIJdQbJNBL0wokRtptEe6CA0Zg,OM,closed,closed,closed,9:00AM - 1:00PM,closed,closed,closed,
BronxWorks-Morris Senior Center,"80 E 181st St, Bronx, NY 10453, USA",40.8522533,-73.9043377,(718) 933-5300,,,,,,,Food bank,ChIJrSzTqXH0wokRDk--lqjy9js,OM,10:00AM-2:00PM,10:00AM-2:00PM,10:00AM-2:00PM,10:00AM-2:00PM,10:00AM-2:00PM,closed,closed,
Brooklyn Bureau Of Community Service (bbcs) - Food Distribution Center,"285 Schermerhorn St, Brooklyn, NY 11217, USA",40.6878144,-73.9827257,(718) 310-5600,http://www.bbcs.org/,info@wearebcs.org,,,,,Food bank,ChIJI5k40rJbwokRXRYzayMYjuc,AP,,,,,,,,
Brooklyn Faith SDA Church - Food Distribution Center,"5518 Church Ave, Brooklyn, NY 11203, USA",40.652275,-73.924888,+1 718-342-6712,https://www.brooklynfaith.org/community-services,connect@brooklynfaith.org,,,,"Hours of Operation:
- Thursday: 1:00 PM to 3:00 PM
- Friday: 1:00 PM to 4:00 PM
For more information, please call them.",Food bank,ChIJE3BL5ZlcwokRVyEl7GnZ0FA,AP,"Monday,Closed","Tuesday,Closed","Wednesday,Closed","Thursday,2 to 4pm","Friday,Closed","Saturday,Closed","Sunday,Closed",
Brooklyn Rescue Mission Urban Harvest Center,"426 Decatur St, Brooklyn, NY 11233, USA",40.6821881,-73.9257785,+1 917-426-3001,http://www.brmuhc.org/,,,,,,Food bank,ChIJ_zi4nnFcwokR0N1rCWyTBZ0,AP,"Monday,Closed","Tuesday,10 to 11:30am","Wednesday,10 to 11:30am","Thursday,Closed","Friday,Closed","Saturday,Closed","Sunday,Closed",
Brooklyn Union Gas - Food Distribution Center,"1 MetroTech Center, Brooklyn, NY 11201, USA",40.6932748,-73.9866898,(718) 403-3370,,,,,,,Food bank,ChIJu-g_t0tawokR44vOwUreyUI,AP,,,,,,,,
"Brooklyn Woods, Inc. - Food Distribution Center","810 Humboldt St # 3, Brooklyn, NY 11222, USA",40.729614,-73.9459892,(718) 389-3636,,,,,,,Food bank,ChIJz-6fI0hZwokRC6f4hvBCSdU,AP,,,,,,,,
Brooklyn Workforce Innovations - Food Distribution Center,"141 5th Ave, Brooklyn, NY 11217, USA",40.6781791,-73.9790108,,,,,,,,Food bank,ChIJiSljsatbwokRcg-9VfcEDak,AP,,,,,,,,
Brooks Memorial United Methodist - Food Distribution Center,"109th Ave, Ozone Park, NY 11417, USA",40.679287,-73.832624,,,,,,,,Food bank,ChIJs6uKfVtnwokRMzykGljVPKA,AP,,,,,,,,
Brooks Memorial United Methodist Church - Food Distribution Center,"143-22 109th Ave, Jamaica, NY 11435, USA",40.6884741,-73.8030579,(718) 658-8822,https://www.brooksmemorialumc.com/,brooksmemorial@aol.com,,,,"Hours of Operation:
- Thursday: 6:00 AM to 8:00 PM
- 1st and 3rd Saturday of the month: 10:00 AM to 12:00 PM
For more information, please call them.",Food bank,ChIJWWNM5ixnwokRFMSKrVlH9tw,AP,"Monday,Closed","Tuesday,Closed","Wednesday,Closed","Thursday,12 to 2PM","Friday,Closed","Saturday,Closed","Sunday,Closed",
Brothers For Progress - Food Distribution Center,"30 3rd Ave, Brooklyn, NY 11217, USA",40.6856937,-73.9806019,,,,,,,,Food bank,ChIJuSNUgrJbwokR3GUMDmhqjyE,AP,,,,,,,,
Brownsville SDA Temple,"1085 Clarkson Ave, Brooklyn, NY 11212, USA",40.6599499,-73.922411,(347) 661-1068,,,,,,,Food bank,ChIJaxtrCo9cwokRLyn4w-z-0mc,OM,closed,closed,01:30 PM - 05:30 PM,closed,closed,closed,closed,
Burns Memorial Church - Food Distribution Center,"107-03 150th St, Jamaica, NY 11435, USA",40.694365,-73.800656,+1 718-523-0214,,,,,,,Food bank,ChIJb_toANRgwokRIhyt-s-r7Po,AP,,,,,,,,
Bushwick Food Pantry - Food Distribution Center,"144 Bleecker St, Brooklyn, NY 11221, USA",40.696186,-73.9200146,,,,,,,,Food bank,ChIJRbC1mRBcwokRngUDeG3rPmo,AP,,,,,,,,
Cabrini Immigrant Services,"139 Henry St, Brooklyn, NY 11201, USA",40.6961242,-73.9933102,(203) 807-0166,,,,,,,Food bank,ChIJ7e0qFkhawokRRWyIqriEh6w,OM,closed,08:30 AM - 12:30 PM,closed,closed,closed,closed,closed,
Cairo Food Pantry,"186 Main St, Staten Island, NY 12413, USA",40.5105011,-74.2486042,(518) 622-3286,https://rlc.life/food-pantry,rlc.office.lj@gmail.com,,,,,Food bank,ChIJUUWDC5zKw4kRozah_p0LIVw,AP,"Monday,Closed","Tuesday,5:30 to 6:30PM","Wednesday,Closed","Thursday,Closed","Friday,Closed","Saturday,Closed","Sunday,Closed",
Caldwell Temple AME Zion Church,"1288 Rev James A Polite Ave, Bronx, NY 10459, USA",40.8261035,-73.8953428,(718) 842-2484,,,,,,,Food bank,ChIJvcIezlD0wokRxlgMU1eNebU,OM,closed,closed,closed,closed,closed,11:00 AM - 02:00 PM,closed,
Caldwell Temple Soupkitchen Paths - Food Distribution Center,"1275 Rev James A Polite Ave, Bronx, NY 10459, USA",40.829761,-73.8957097,(347) 577-5070,,office@ctbronx.com,,,,"Every 2nd Saturday from 11:00 am to 2:00 pm, you can make a donation or volunteer by calling them.",Food bank,ChIJExxFxVD0wokRw8rGGr1jlrE,AP,,,,,,,,
Called To Serve God Urban Ministry - Food Distribution Center,"91 Utica Ave, Brooklyn, NY 11213, USA",40.6756795,-73.9303063,,,,,,,,Food bank,ChIJs0SJfnlcwokRlSud1vNEbEA,AP,,,,,,,,
Calm Food Pantry,"121 Grandview Ave, Staten Island, NY 10303, USA",40.6364776,-74.1649311,(718) 273-0372,https://calmchurch.org/,Calmchurch@gmail.com,,,,"Hours of Operation:
Sunday: 1:00 am - 1:30 pm
Thursday: 6:00 pm - 7:00 pm
Please call for more information.",Food bank,ChIJ9XSHG6RNwokR-wA1q4F92hE,AP,,,,,,,,
Calvar Baptist Church Of Red Hook - Food Distribution Center,"773 Hicks St, Brooklyn, NY 11231, USA",40.6764016,-74.0045902,+1 718-522-5159,,,,,,,Food bank,ChIJH2XI4_RawokRTdkof45jtKc,AP,,,,,,,,
Calvary AME Church - Food Distribution Center,"790 Herkimer St, Brooklyn, NY 11233, USA",40.6781597,-73.9271908,(718) 467-0987,,,,,,,Food bank,ChIJHUObgHBcwokRzSi_o3oT3Lc,AP,"Monday,Closed","Tuesday,12 to 2PM","Wednesday,Closed","Thursday,Closed","Friday,Closed","Saturday,Closed","Sunday,Closed",
Calvary Baptist Church - Food Distribution Center,"111-10 Guy R Brewer Blvd, Queens, NY 11433, USA",40.6914526,-73.788009,(718) 297-2301,https://cbcjny.org/outreach/food-pantry/,info@cbcjny.org,,,,"Hours of Operation:
- Wednesday: 10:00 AM to 12:00 PM
- Thursday: 11:30 AM to 1:30 PM",Food bank,ChIJ0cAvEyxhwokRicEM3Tbx_w0,AP,,,,,,,,
Calvary Free Will Baptist Church,"1520-30 Herkimer St, Brooklyn, NY 11207, USA",40.6764792,-73.9030937,(973) 951-8231,,,,,,,Food bank,ChIJ0TxVBkVcwokR6HtzwsOIEVw,OM,closed,closed,closed,12:00 PM - 01:00 PM,closed,closed,closed,
Calvary Pentecostal Church - Food Distribution Center,"151 Woodruff Ave, Brooklyn, NY 11226, USA",40.6544397,-73.9610956,+1 718-469-8252,http://www.ccopny.org/,info@ccopny.org,,,,"Hours of Operation:
Thursday from 11:00 AM to 1:00 PM
Photo ID is required.
For more information, please call.",Food bank,ChIJVW5IFRVbwokR_Gg_ZU8YH_M,AP,closed,closed,closed,11:00 AM - 01:00 PM,closed,closed,closed,
Calvary's Mission,"102-16 89th Ave, Queens, NY 11418, USA",40.6928004,-73.8435145,(646) 427-0956,,,,,,,Food bank,ChIJ9cbtCv9dwokRwluRpgsB_VI,OM,closed,closed,closed,closed,closed,07:00 AM - 10:00 AM/RO-6/8-7am-11am,closed,
Calvary/ Saint George - Food Distribution Center,"209 E 16th St, New York, NY 10003, USA",40.7343871,-73.9850346,+1 212-475-0830,https://www.calvarystgeorges.org/,dptenor@gmail.com,,,,"Soup Kitchen
Hours of operation: Thursday 12:00 pm - 1:00 pm
For more information, please call them.",Food bank,ChIJsyp-vZ9ZwokRng5vLnYOzT0,AP,"Monday,Closed","Tuesday,Closed","Wednesday,Closed","Thursday,12 to 1pm","Friday,Closed","Saturday,Closed","Sunday,Closed",
Camba (church Avenue Merchants Block Association) - Food Distribution Center,"1720 Church Ave, Brooklyn, NY 11226, USA",40.6490908,-73.9633697,(718) 282-2500,http://www.camba.org/,info@camba.org,,,,,Food bank,ChIJU2l-zz5bwokRCkY_i8zsDaY,AP,,,,,,,,
CAMBA Beyond Hunger Emergency Food Pantry,"21 Snyder Ave, Brooklyn, NY 11226, USA",40.6487938,-73.9572996,(718) 282-3082,http://www.camba.org/,info@camba.org,,,,,Food bank,ChIJreETWkBbwokRZudwusGepKY,AP,"Monday,Closed","Tuesday,10AM to 1PM","Wednesday,Closed","Thursday,10AM to 1PM","Friday,Closed","Saturday,Closed","Sunday,Closed",
Camp Friendship Food Pantry,"339 8th St, Brooklyn, NY 11215, USA",40.6690425,-73.9837835,,,,,,,,Food bank,ChIJrec0m_1awokRiLTLAwSTX3Q,OM,closed,closed,closed,closed,closed,9am-12pm,closed,
Canaan Senior Service Center - Food Distribution Center,"132 W 116th St, New York, NY 10026, USA",40.8026299,-73.9514771,(212) 866-0301,,,,,,,Food bank,ChIJX7XbHBH2wokRRhs_HJvNFsA,AP,,,,,,,,
Caribbean American Steelpan Education Center,"511 Elton St, Brooklyn, NY 11208, USA",40.6704214,-73.8823121,(347) 788-7350,,,,,,,Food bank,ChIJUTZEDa5dwokRHd2qF9RC2Hc,OM,closed,closed,closed,closed,closed,closed,06:00 PM - 08:00 PM,
Casa Atabex Ach - Food Distribution Center,"471 E 140th St, Bronx, NY 10454, USA",40.809676,-73.9196599,(718) 585-5540,,,,,,,Food bank,ChIJlT6E8sP1wokRlW0t55j6x_0,AP,,,,,,,,
"Cases, Inc. - Food Distribution Center","346 Broadway, New York, NY 10013, USA",40.716684,-74.0038957,(212) 732-0076,http://www.cases.org/,info@cases.org,,,,,Food bank,ChIJW9j8WSBawokRnjaiiKG4isI,AP,,,,,,,,
"Casita Maria, Inc. - Food Distribution Center","928 Simpson St, Bronx, NY 10459, USA",40.8206131,-73.8929452,(718) 589-2230,,,,,,,Food bank,ChIJk01uN6v1wokRUJ1nUSbiJn0,AP,,,,,,,,
"Cathedral Church, Saint John The Divine - Food Distribution Center","2723 Broadway, New York, NY 10025, USA",40.7999468,-73.9683877,,,,,,,,Food bank,ChIJraqqqiX2wokRd9q0ir-55io,AP,,,,,,,,
Cathedral Community Cares - Food Distribution Center,"1047 Amsterdam Ave, New York, NY 10025, USA",40.8041136,-73.9625321,(212) 316-7583,https://www.stjohndivine.org/education/community/,ccc@stjohndivine.org,,,,,Food bank,ChIJXzEVVTz2wokR69adHHavdyk,AP,"Monday,9:30AM to 3PM","Tuesday,9:30AM to 3PM","Wednesday,9:30AM to 3PM","Thursday,9:30AM to 3PM","Friday,9:30AM to 3PM","Saturday,9:30AM to 5PM","Sunday,10AM to 5PM",
Cathedral of Joy CDC,"43 George St, Brooklyn, NY 11206, USA",40.700935,-73.9317156,(718) 809-4965,,,,,,,Food bank,ChIJicJS8gZcwokRIyonZE9Xn64,OM,closed,09:00 AM - 11:30 AM,closed,09:00 AM - 11:30 AM,closed,closed,closed,
Catholic Charities - Brooklyn West Family Center - Food Distribution Center,"191 Joralemon St # 1, Brooklyn, NY 11201, USA",40.692753,-73.9917466,+1 718-722-6001,,,Andrew.Mastrangelo@ccbq.org,,,Email us for more volunteering information!,Food bank,ChIJtzDpJ0lawokRSaid7KXs-Dc,AP,"Monday,9am to 4pm","Tuesday,9am to 4pm","Wednesday,9am to 4pm","Thursday,Closed","Friday,9am to 4pm","Saturday,Closed","Sunday,Closed",
Catholic Charities - Our Lady of Angels Human Services - Food Distribution Center,"336 73rd St, Brooklyn, NY 11209, USA",40.6323739,-74.0261454,(718) 722-6001,,,,,,,Food bank,ChIJ34VC2VlFwokRhmx-wNyuo94,AP,"Monday,Closed","Tuesday,Closed","Wednesday,9:30AM to 1:30PM","Thursday,Closed","Friday,Closed","Saturday,Closed","Sunday,Closed",
Catholic Charities - Our Lady of Miracles - Canarsie Cluster Center - Food Distribution Center,"757 E 86th St, Brooklyn, NY 11236, USA",40.6388861,-73.9090762,(718) 722-6001,http://ourladyofmiracles-brooklyn.org/,olm@ourladyofmiraclesbrooklyn.com,Andrew.Mastrangelo@ccbq.org,,,"Hours of Operation:
Saturday: 10:00 am - Last person served.
Please call for more information.

Email us for more volunteering information",Food bank,ChIJmVhK-8ZcwokRUPce4ghSpWo,AP,"Monday,Closed","Tuesday,Closed","Wednesday,Closed","Thursday,Closed","Friday,Closed","Saturday,10 to 11:30AM","Sunday,Closed",
Catholic Charities - Queens South - Food Distribution Center,"90-39 189th St, Queens, NY 11423, USA",40.7120499,-73.7703278,(718) 217-1238,,,,,,,Food bank,ChIJEbQ52mxhwokRf3K-n82J9cE,AP,,,,,,,,
Catholic Charities - Saint Marks - Food Distribution Center,"2609 E 19th St, Brooklyn, NY 11235, USA",40.5880539,-73.949933,(718) 722-6001,https://www.ccbq.org/service/food-pantry-network/,info@ccbq.org,Andrew.Mastrangelo@ccbq.org,https://www.ccbq.org/,,Visit our website or email us for more information!,Food bank,ChIJ_eAebmNEwokRIWes67mczDM,AP,"Monday,Closed","Tuesday,Closed","Wednesday,Closed","Thursday,9:30AM to 11:30PM","Friday,Closed","Saturday,Closed","Sunday,Closed",
Catholic Charities - Saint Peter's Church - Food Distribution Center,"53 St Marks Pl, Staten Island, NY 10301, USA",40.6471017,-74.0843624,,,,Andrew.Mastrangelo@ccbq.org,,,Email us for more volunteering information!,Food bank,ChIJMwlLFSlOwokRFWA4emrwOmA,AP,,,,,,,,
Catholic Charities Community Services Bronx Center - Food Pantry,"402 E 152nd St, Bronx, NY 10455, USA",40.8179358,-73.9165322,(718) 292-9090,https://cccsny.org/services/neighborhood-centers-south-bronx,,Andrew.Mastrangelo@ccbq.org,,,Email us for more volunteering information!,Food bank,ChIJVVUxF8n1wokRyww-BjoLsHU,AP,closed,closed,05:00 PM - 07:00 PM,10:00 AM - 12:00 PM,10:00 AM - 12:00 PM,closed,closed,
Catholic Charities Community Services Closet Pantry At The New York Catholic Center Food Pantry,"1011 1st Ave., New York, NY 10022, USA",40.7574566,-73.9639978,+1 888-744-7900,https://cccsny.org/services/food-pantries,,,,,,Food bank,ChIJRUQNteZYwokRT_298OofDKQ,AP,,,,,,,,
Catholic Charities Food Pantry,"19 Sidney Pl, Brooklyn, NY 11201, USA",40.6925281,-73.9940677,(718) 625-1177,https://www.stcharlesbklyn.org/food-pantry/,rectory@stcharlesbklyn.org,,,,,Food bank,ChIJ__9vrUhawokR8oWTptKdhp8,AP,,,,,,,,
Catholic Charities of Staten Island,"6581 Hylan Blvd, Staten Island, NY 10309, USA",40.5097084,-74.2224731,(718) 984-1500,https://www.cc-si.org/,events@cc-si.org,,,,,Food bank,ChIJ_dTn4lS1w4kR7mI0nrlujOI,AP,"Monday,7AM to 7PM","Tuesday,7AM to 7PM","Wednesday,7AM to 7PM","Thursday,7AM to 7PM","Friday,7AM to 7PM","Saturday,Closed","Sunday,Closed",
Catholic Charities Washington Heights Food Pantry,"665 W 182nd St, New York, NY 10033, USA",40.8479761,-73.9350189,(646) 630-2390,,,,,,,Food bank,ChIJxesmFh70wokRNxiPFUK9kUU,OM,closed,closed,closed,10:00 AM - 12:00 PM,closed,closed,closed,
Catholic Charities- Saint John's Food Pantry - Food Distribution Center,"333 Hart St, Brooklyn, NY 11206, USA",40.694703,-73.9362997,(718) 722-6001,https://www.ccbq.org/service/food-pantry-network/,,,,,,Food bank,ChIJG498G_ZbwokRsoNxAl7ZXdg,AP,"Monday,Closed","Tuesday,7:30 to 8:30AM","Wednesday,Closed","Thursday,Closed","Friday,Closed","Saturday,Closed","Sunday,Closed",
Catholic Charities: Our Lady Of The Angelus - Food Pantry,"63-63 98th St, Rego Park, NY 11374, USA",40.7306768,-73.8583775,+1 718-897-4444,https://ourladyoftheangelus-queens.org/,frjohn6363@gmail.com,,,,"Hours:
First Saturday of the month
From 10:00 to 11:30 am
For more information, please call them.",Food bank,ChIJVVWJPDFewokRU0pgojMX-sk,AP,,,,,,,,
Catholic Charities: Saint Gregory The Great - Food Pantry,"224 Brooklyn Ave, Brooklyn, NY 11213, USA",40.6721033,-73.9449372,(718) 774-3806,,,,,,,Food bank,ChIJAQDQ9YJbwokRC9wqjr55wwU,AP,,,,,,,,
Catholic Migration Office Of The Diocese Of Brooklyn/queens - Food Distribution Center,"1258 65th St, Brooklyn, NY 11219, USA",40.6261962,-74.0022117,+1 718-236-3000,,,,,,,Food bank,ChIJ94ricjlFwokRXf_uFju3Huo,AP,,,,,,,,
CCCS,"120 Anderson Ave, Staten Island, NY 10302, USA",40.6347235,-74.1345937,(718) 447-6330,,,,,,,Food bank,ChIJu7G-w9xNwokRstAOEzv6_hU,OM,closed,01:00 PM - 03:00 PM,closed,closed,closed,closed,closed,
CCNS-BFFY @ Our Lady of Solace,"2866 W 17th St, Brooklyn, NY 11224, USA",40.5772252,-73.985092,(718) 726-9790,,,,,,,Food bank,ChIJk2pqncpFwokRpBhcaJo57B8,OM,09:30 AM - 11:00 AM,closed,closed,closed,closed,closed,closed,
CCNS-Brooklyn West Family Center,"19 Sidney Pl, Brooklyn, NY 11201, USA",40.6917121,-73.9940677,(718) 726-9790,,,,,,,Food bank,ChIJSR1frkhawokRoSbxu0AqnK8,OM,closed,closed,closed,09:30 AM - 12:00 PM & 1:30 PM - 3:00 PM,closed,closed,closed,
CCNS-St. Michael's Church,"13676 41st Ave, Queens, NY 11355, USA",40.7575541,-73.8262446,(516) 527-6784,,,,,,,Food bank,ChIJ95IyNBFgwokR4WT4b6Dxrws,OM,closed,9:00 AM - 11:00 AM,9:00 AM - 11:00 AM,closed,closed,closed,closed,
Center For Employment Opportunities - Food Distribution Center,"32 Broadway, New York, NY 10004, USA",40.7059337,-74.0130242,(212) 422-4430,http://www.ceoworks.org/,info@ceoworks.org,,,,,Food bank,ChIJqxvKSBFawokRNjKAPclf_IQ,AP,,,,,,,,
Center For Employment Training - Food Distribution Center,"346 W 17th St, New York, NY 10011, USA",40.7464968,-74.0094471,+1 212-924-2272,,,,,,,Food bank,ChIJ_f___8ZZwokRXARgJXxWzT0,AP,,,,,,,,
Center For Family Life - Food Distribution Center,"345 43rd St, Brooklyn, NY 11232, USA",40.6510464,-74.009392,+1 718-788-3500,http://www.cflsp.org/,info@centerforfamilylife.org,,,,,Food bank,ChIJxwGtzLlawokRQJMPcHwf6tk,AP,"Monday,9 to 11am","Tuesday,9 to 11am","Wednesday,9 to 11am","Thursday,9 to 11am","Friday,9 to 11am","Saturday,Closed","Sunday,Closed",
Center For Immigrant Families - Food Distribution Center,"20 W 104th St, New York, NY 10025, USA",40.7971569,-73.9621812,(212) 531-3011,,,,,,,Food bank,ChIJ0-6NLSL2wokR2rZE_BvkZ5g,AP,,,,,,,,
Center of Hope International - Food Distribution Center,"38-49 12th St, Queens, NY 11101, USA",40.7569005,-73.9418762,(718) 784-4673,http://www.cohi.us/,,,,,,Food bank,ChIJvX1ZKtJYwokRt5goQYhEZp8,AP,,,,,,,,
Central Baptist Community Outreach - Food Distribution Center,"260 Knickerbocker Ave, Brooklyn, NY 11237, USA",40.7022939,-73.9249859,(718) 381-2055,,dnet74@gmail.net,,,,"Monday - Friday
9:00 a.m. - 10:00 a.m.",Food bank,ChIJC0NDpgRcwokRgJIbNZk2F8U,AP,,,,,,,,
Central Harlem Senior Center - Food Distribution Center,"120 W 140th St, New York, NY 10030, USA",40.8174959,-73.9400282,,,,,,,,Food bank,ChIJxWYAZnf2wokReVKVTfj6Lxc,AP,,,,,,,,
Central Queens Y - Food Pantry,"108-13 67th Rd, Flushing, NY 11375, USA",40.7286574,-73.8466943,(718) 268-5011,https://www.commonpointqueens.org/program/digital-food-pantry/,smeza@commonpointqueens.org,,,,"Please note that we process incoming customers and orders on the following days and hours of operation:
Monday to Thursday: 8:30 am - 4:00 pm
Friday: 8:30 am - 2:00 pm
Our distribution hours of operation are every other Wednesday from 9:00 am - 2:00 pm.
For more information, please call us.",Food bank,ChIJ43h2JClewokRUgE6iJ6IBPU,AP,"Monday,11AM to 2PM, 3 to 6:30PM","Tuesday,9AM to 2PM","Wednesday,9AM to 2PM, 3 to 6:30PM","Thursday,9AM to 2PM","Friday,9AM to 2PM","Saturday,Closed","Sunday,10AM to 1:30PM",
Centro Civico Colombiano - Food Distribution Center,"90-37 Corona Ave., Queens, NY 11373, USA",40.742194,-73.874446,(718) 699-4833,,,,,,,Food bank,ChIJyyGhVbJfwokRPputt09AIlU,AP,,,,,,,,
Centro de la Hospitalidad - Food Distribution Center,"221 Heberton Ave, Staten Island, NY 10302, USA",40.6352075,-74.1322328,(718) 420-6466,,,,,,,Food bank,ChIJ__-kId1NwokRm8SeJ9fyexY,AP,"Monday,Closed","Tuesday,Closed","Wednesday,Closed","Thursday,3 to 6:30PM","Friday,Closed","Saturday,Closed","Sunday,Closed",
Centro Evangelistico MMM Inc Community Food Pantry Program,"148 Post Ave, New York, NY 10034, USA",40.8653177,-73.9190182,(646) 545-7696,https://foodpantrynyc.org/,contact@foodpantrynyc.org,,,,,Food bank,ChIJLz4ODvbzwokRake1EPCdRvI,AP,"Monday,Closed","Tuesday,Closed","Wednesday,Closed","Thursday,Closed","Friday,Closed","Saturday,9AM to 1PM","Sunday,Closed",
Chambers Memorial Baptist Church,"219 E 123rd St, New York, NY 10035, USA",40.7987288,-73.9358673,(917) 822-6429,,,,,,,Food bank,ChIJz5D0BuL1wokRFkv5M01cSZA,OM,closed,closed,10:00 AM - 01:00 PM,closed,closed,closed,closed,
Chance for Children,"11 McKeever Pl, Brooklyn, NY 11225, USA",40.6657483,-73.9584558,(347) 616-3228,,,,,,,Food bank,ChIJWXGQJXNbwokRpH5efzqTa34,OM,closed,closed,closed,closed,9:00:00 AM - 2:00 PM,closed,closed,
Chance For Children - Food Distribution Center,"2097 Fulton St, Brooklyn, NY 11233, USA",40.678453,-73.909186,,,,,,,,Food bank,ChIJIV37rUNcwokRqB_e0PWxKsA,AP,,,,,,,,
Chapel of Resurrection Parish-Food Pantry,"275 W 151st St, New York, NY 10039, USA",40.8265834,-73.9385265,(212) 281-2100,,,,,,,Food bank,ChIJr-bzyX_2wokRqGP15ZXdmvk,AP,"Monday,Closed","Tuesday,9 to 11AM","Wednesday,Closed","Thursday,Closed","Friday,Closed","Saturday,Closed","Sunday,Closed",
Chazaq,"14147 72nd Ave, Flushing, NY 11367, USA",40.7260344,-73.822288,,,,,,,,Food bank,EicxNDE0NyA3Mm5kIEF2ZSwgRmx1c2hpbmcsIE5ZIDExMzY3LCBVU0EiMRIvChQKEgmNhWIUjGDCiREVsKhrDSEQehDDbioUChIJeZFJ9h9ewokR3shUp2woYto,OM,closed,2:30pm - 5:00pm,closed,closed,closed,closed,closed,
Chelsea Community Fridge & Cupboard,"55 W 15th St, New York, NY 10011, USA",40.7378853,-73.995525,,http://linktr.ee/thechelseafridge,thechelseafridge@gmail.com,,,,,Fridge,ChIJO_etEUVZwokR4hVjnEwK-WQ,AP,"Monday,Open 24 hours","Tuesday,Open 24 hours","Wednesday,Open 24 hours","Thursday,Open 24 hours","Friday,Open 24 hours","Saturday,Open 24 hours","Sunday,Open 24 hours",
Cherry Tree Association - Food Distribution Center,"One Million Diva Avenue, Bronx, NY 10454, USA",40.8022593,-73.9154068,(718) 292-6443,,,,,,,Food bank,ChIJBQAAAOv1wokRj4kDcl3fnDU,AP,,,,,,,,
Cheyrock Food From Heaven - Food Distribution Center,"2929 W 20th St, Brooklyn, NY 11224, USA",40.5755701,-73.9866199,,,,,,,,Food bank,ChIJPesXUMpFwokRBRKadJ9witA,AP,,,,,,,,
Chicky's Mini Market,"332 St Ann's Ave, Bronx, NY 10454, USA",40.808852,-73.9159922,,,,,,,,Food bank,ChIJMaWFJMH1wokRdPKTOS-lT6s,AP,"Monday,9AM to 5PM","Tuesday,9AM to 5PM","Wednesday,9AM to 5PM","Thursday,9AM to 5PM","Friday,9AM to 5PM","Saturday,Closed","Sunday,Closed",
Child Development Support Corp.,"352 Classon Ave #358, Brooklyn, NY 11238, USA",40.687878,-73.9601058,(718) 398-2050,,,,,,,Food bank,ChIJs1_iGr5bwokRqgxm-swPWqM,OM,closed,closed,closed,10:00 AM - 01:00 PM,closed,closed,closed,
Children of the Light Food Pantry,"1171 E 95th St, Brooklyn, NY 11236, USA",40.6422446,-73.9017884,+1 347-384-4535,https://cotlfp.business.site/,,,,,,Food bank,ChIJnW-_2CVdwokRES27mOwC-ts,AP,"Monday,10am to 4pm","Tuesday,Closed","Wednesday,10am to 4pm","Thursday,Closed","Friday,10am to 4pm","Saturday,10am to 2pm","Sunday,Closed",
Children's Aid Society - Douglas Center - Food Distribution Center,"885 Columbus Ave, New York, NY 10025, USA",40.7975524,-73.9638488,(212) 865-6337,https://www.childrensaidnyc.org/programs/location/frederick-douglass-community-center,giving@childrensaidnyc.org,,,,,Food bank,ChIJZc-t6SP2wokRbCcQo8PtJWM,AP,"Monday,8AM to 7PM","Tuesday,8AM to 7PM","Wednesday,8AM to 7PM","Thursday,8AM to 7PM","Friday,8AM to 7PM","Saturday,Closed","Sunday,Closed",
Children's Aid Society - Gohealthy Food Justice Program - Food Distribution Center,"150 E 45th St, New York, NY 10017, USA",40.7528032,-73.9737136,(212) 949-4800,http://www.childrensaidsociety.org/gohealthy/food-justice-program,giving@childrensaidnyc.org,,,,,Food bank,ChIJx1k8jAJZwokR51vpetC3N8E,AP,"Monday,8AM to 4PM","Tuesday,8AM to 4PM","Wednesday,8AM to 4PM","Thursday,8AM to 4PM","Friday,8AM to 4PM","Saturday,Closed","Sunday,Closed",
Children's Defense Fund - New York - Food Distribution Center,"420 Lexington Ave, New York, NY 10170, USA",40.7527325,-73.9757567,(212) 697-2323,http://www.cdfny.org/,,,,,,Food bank,ChIJk8e9PwJZwokRkKzFDuAH7b8,AP,,,,,,,,
Chinese Progressive Association - Food Distribution Center,"83 Canal St, New York, NY 10002, USA",40.7154311,-73.9932171,(212) 274-1891,,,,,,,Food bank,ChIJl_4ZQihawokRFKDH22VtKBE,AP,,,,,,,,
Chinese United Methodist Church - Food Distribution Center,"69 Madison St, New York, NY 10038, USA",40.7122319,-73.9967003,(212) 285-9006,,,,,,,Food bank,ChIJv5452iVawokRM956fcop37A,AP,,,,,,,,
"Chinese-american Planning Council, Inc. - Food Distribution Center","150 Elizabeth St, New York, NY 10012, USA",40.7203139,-73.9950057,(212) 942-0920,,,,,,,Food bank,ChIJSwRQg4hZwokRRQ4vZcuDGdk,AP,,,,,,,,
CHiPS,"200A 4th Ave, Brooklyn, NY 11217, USA",40.6783303,-73.9828625,(718) 237-2962,http://chipsonline.org/,admin@chipsonline.org,,,,"We are open Monday - Saturday and our volunteer hours are from 830AM - 2PM. 

Volunteers can sign up for:

the entire day (9AM-2PM), 
the opener shift (830AM- 11:30 AM), 
the breakfast shift (9am-noon), 
or the lunch shift (11AM - 2PM). 
We have some COVID rules : we require a negative Rapid test taken within 12 hours of their shift. (The rapid test may be taken at home, at a clinic/pop-up testing location, or we can test on site upon arrival.)",Food bank,ChIJr1LR1apbwokRGUWUp0mD0aU,AP,"Monday,9AM to 4PM","Tuesday,9AM to 4PM","Wednesday,9AM to 4PM","Thursday,9AM to 4PM","Friday,9AM to 4PM","Saturday,11AM to 2PM","Sunday,Closed",
Christ Abundant Life Ministries - Food Distribution Center,"121 Grandview Ave, Staten Island, NY 10303, USA",40.6364859,-74.1647271,(718) 273-0372,,,,,,,Food bank,ChIJLfrPG6RNwokR5TdQaiXonjQ,AP,"Monday,8:30AM to 3PM","Tuesday,8:30AM to 3PM","Wednesday,8:30AM to 3PM","Thursday,8:30AM to 3PM","Friday,8:30AM to 3PM","Saturday,Closed","Sunday,Closed",
Christ And Saint Stephen's Church Brown Bag Program,"120 W 69th St, New York, NY 10023, USA",40.7756765,-73.9810516,(212) 787-2755,https://www.csschurch.org/brown-bag-program/,brownbag@csschurch.org,,,,"Services: Offers brown-bag program. Please call for further information.
Hours of Operation:
Monday - Friday: 9:00 AM - 5:00 PM
Saturday: Closed
Sunday: Closed
Note: The original text had conflicting information about the hours of operation. I assumed that the correct hours were the ones listed under ""Hours of Operation"" and adjusted the rest of the text accordingly.",Food bank,ChIJAQBMwopYwokREJvgm950FXU,AP,09:30 AM - 10:30 AM,09:30 AM - 10:30 AM,09:30 AM - 10:30 AM,09:30 AM - 10:30 AM,09:30 AM - 10:30 AM,closed,closed,
Christ Apostolic Church Goke Food Pantry,"622 Cortelyou Rd, Brooklyn, NY 11218, USA",40.638498,-73.9719432,(516) 263-4218,,,,,,,Food bank,ChIJRT_P7C1bwokRuDvoc4s1juk,OM,closed,10:00 AM - 04:00 PM,closed,closed,closed,9:00 AM - 1:00 PM,closed,
Christ Apostolic Church WOSEM,"442 E 183rd St, Bronx, NY 10458, USA",40.8535636,-73.894237,(516) 330-1146,,,,,,,Food bank,ChIJjT4OBXz0wokR0tWaxTR-5ng,OM,closed,closed,08:00 PM - 08:30 PM/RO-5/28-6PM-7PM,closed,closed,closed,closed,
Christ Apostolic Church Wosem - Food Distribution Center,"108-02 Sutphin Blvd, Queens, NY 11435, USA",40.692788,-73.799538,(718) 658-8981,https://wosem.org/,email@website.com,,,,,Food bank,ChIJs_7da9RgwokRkxp52f0mTY4,AP,"Monday,10AM to 5PM","Tuesday,10AM to 5PM","Wednesday,10AM to 5PM","Thursday,10AM to 5PM","Friday,10AM to 5PM","Saturday,10AM to 12PM","Sunday,10AM to 12PM",
Christ Church International Joseph's House,"122-20 Merrill St, Jamaica, NY 11434, USA",40.6822964,-73.7698032,(516) 860-4432,,,,,,,Food bank,ChIJQctOdLVmwokRakC47TlJ9QI,OM,closed,closed,closed,closed,closed,10:00 AM - 01:00 PM,closed,
Christ Disciples International Ministries - Food Distribution Center,"3021 Webster Ave, Bronx, NY 10458, USA",40.8697748,-73.8796365,(718) 994-5422,http://www.christdisciples.org/,emaeyak@christdisciples.org,,,,"The mission of this organization is to eradicate hunger and related illnesses by providing short and long-term assistance that promotes a strong community. They aim to empower families to live independently and be respected contributors to their communities. Their food pantry serves the Bronx community, particularly those experiencing food emergencies. The pantry is open on Wednesdays and Saturdays from 10:30 am to 1:00 pm. In addition to the pantry, they offer supportive services such as computer literacy classes for senior citizens. For more information on their services, please contact them directly.",Food bank,ChIJt9AGZHDzwokR3TGtnziIhGc,AP,12:00 PM - 02:00 PM,closed,10:30 AM - 01:00 PM,10:30 AM - 01:00 PM,closed,closed,04:00 PM - 05:00 PM,
Christ House - Food Distribution Center,"432 E 142nd St, Bronx, NY 10454, USA",40.8110209,-73.9200069,,,,,,,,Food bank,ChIJ0ZODbcT1wokRhkRxDar-mu8,AP,,,,,,,,
Christ Is the Answer Full Gospel Ministry - Food Distribution Center,"198-17 Hollis Ave, St. Albans, NY 11412, USA",40.706506,-73.7590382,(718) 749-8768,,,,,,,Food bank,ChIJv1WAJ2ZhwokR4yTo1-zDXaA,AP,,,,,,,,
Christ Is The Light Church - Food Distribution Center,"89-14 48th Ave, Queens, NY 11373, USA",40.7410073,-73.8749063,+1 718-291-9281,,,,,,,Food bank,ChIJhfi_57JfwokRlSQ0Wveblhg,AP,,,,,,,,
Christ Jesus Baptist Church - Food Distribution Center,"870 Bronx Park S, Bronx, NY 10460, USA",40.8467787,-73.8819004,,,,,,,,Food bank,ChIJbfV93470wokRfIIg8daws_E,AP,"Monday,Closed","Tuesday,Closed","Wednesday,10AM to 6PM","Thursday,Closed","Friday,Closed","Saturday,Closed","Sunday,Closed",
Christ Jesus Baptist Church - Food Pantry,"1812 White Plains Rd, Bronx, NY 10462, USA",40.8457545,-73.8660957,(347) 388-5992,,,,,,,Food bank,ChIJVVVZ3Zf0wokRLbo2PoAIoDM,AP,"Monday,Closed","Tuesday,Closed","Wednesday,10AM to 6PM","Thursday,Closed","Friday,Closed","Saturday,Closed","Sunday,Closed",
Christ Temple of the Apostolic Faith,"13 W 128th St, New York, NY 10027, USA",40.8069416,-73.9414356,(212) 534-4200,,,,,,,Food bank,ChIJg5lGr3T2wokRAtpZjOwPjmo,OM,closed,closed,closed,closed,01:00 PM - 02:00 PM,closed,closed,
Christ the King Community Pantry - Food Distribution Center,"141 Marcy Pl, Bronx, NY 10452, USA",40.8379298,-73.9154076,(718) 538-5546,,,,,,,Food bank,ChIJVXc-Hjn0wokRD7Scxc2f_2c,AP,,,,,,,,
Christ The Only Food Church - Food Distribution Center,"1331 Morris Ave, Bronx, NY 10456, USA",40.836573,-73.912495,,,,,,,,Food bank,ChIJCxLagTj0wokREoCtzFoKoCA,AP,,,,,,,,
Christian Church of Canarsie - Food Distribution Center,"602 E 89th St, Brooklyn, NY 11236, USA",40.6424069,-73.9100476,(347) 742-7651,,,,,,,Food bank,ChIJh7KF5sBcwokRHouhjo45qes,AP,,,,,,,,
Christian Crossroads - Food Distribution Center,"130 Watkins St, Brooklyn, NY 11212, USA",40.6696357,-73.9081285,(718) 566-7300,,,,,,,Food bank,ChIJrdDtl15cwokRfPXc3awKpPA,AP,,,,,,,,
Christian Cultural Center,"12020 Flatlands Ave, Brooklyn, NY 11207, USA",40.6510208,-73.8887845,(631) 679-0205,,,,,,,Food bank,ChIJH11HguJcwokRxqIXTtuyt3Q,OM,closed,9AM- 2PM,11AM- 4PM,2:00 PM - 7:00 PM,closed,closed,closed,
Christian Cultural Center - Food Distribution Center,"716 Chester St, Brooklyn, NY 11236, USA",40.6537007,-73.9077491,+1 718-306-1000,http://www.cccinfo.org/,,,,,,Food bank,ChIJl2Bixu1cwokRtzezruE0HLk,AP,"Monday,Closed","Tuesday,Closed","Wednesday,9am to 12pm, 1 to 3pm","Thursday,9am to 12pm, 1 to 3pm","Friday,Closed","Saturday,Closed","Sunday,Closed",
Christian Fellowship Life Center - Food Distribution Center,"16 Fleet Walk, Brooklyn, NY 11201, USA",40.6952325,-73.9813823,(718) 314-1165,,,,,,,Food bank,ChIJ_TAsZ7VbwokRGFZJ_5EVJD0,AP,,,,,,,,
Christian Fellowship Life Center - Food Distribution Center,"132 Carlton Ave, Brooklyn, NY 11205, USA",40.6937141,-73.9733627,+1 718-314-1165,,,,,,,Food bank,ChIJ5ylrxbdbwokR1sG6aG_QWzc,AP,"Monday,8am to 5pm","Tuesday,8am to 5pm","Wednesday,8am to 5pm","Thursday,8am to 5pm","Friday,8am to 5pm","Saturday,Closed","Sunday,Closed",
Christian Fellowship Seventh Day Adventist Community Services - Food Distribution Center,"779 Schenectady Ave, Brooklyn, NY 11203, USA",40.654252,-73.933273,(718) 469-2050,https://cfellowshipsda.com/community-services/,firstelder@cfellowshipsda.org,,,,"Phone: (718) 469-6330
Hours of operation: Tuesday 11:30 am - 2:00 pm
For more information, please call them.",Food bank,ChIJI1hN1J1cwokR-ABSLtFKxA0,AP,"Monday,5 to 6PM","Tuesday,5 to 6PM","Wednesday,5 to 6PM","Thursday,Closed","Friday,Closed","Saturday,Closed","Sunday,Closed",
Christian Pentecostal Church,"910 Richmond Rd, Staten Island, NY 10304, USA",40.6045353,-74.0921991,(347) 613-0390,,,,,,,Food bank,ChIJz2KyqfFOwokRYMSwuyhnPSU,OM,closed,04:00 PM - 07:00 PM,04:00 PM - 07:00 PM,closed,closed,closed,closed,
Christina Home Care Food Pantry,"120-13 Liberty Ave, Jamaica, NY 11419, USA",40.6863411,-73.8227228,(917) 592-8686,,,,,,,Food bank,ChIJ6SEyaElnwokRxjp6aInlxKc,OM,closed,closed,closed,closed,12:30 PM - 05:00 PM,closed,closed,
Church Of God Faith In Christ - Food Distribution Center,"1238 Flatbush Ave, Brooklyn, NY 11226, USA",40.639935,-73.955478,(718) 703-9397,,,,,,,Food bank,ChIJGVEH4khbwokRsfRD1--yrqA,AP,,,,,,,,
Church of God Feeding Hungry,"836 Classon Ave, Brooklyn, NY 11238, USA",40.6724275,-73.9612159,(347) 415-3345,,,,,,,Food bank,ChIJl4ERmQpbwokRA0DuniHxIcU,OM,closed,closed,closed,9:30:00 AM - 1:30 PM,closed,closed,closed,
Church of God in Christ - Food Distribution Center,"627 Remsen Ave, Brooklyn, NY 11236, USA",40.651698,-73.918277,(718) 346-4897,,,,,,,Food bank,ChIJPdXtAZRcwokRmRzraA10eM8,AP,"Monday,9AM to 2PM","Tuesday,9AM to 2PM","Wednesday,9AM to 2PM","Thursday,9AM to 2PM","Friday,9AM to 2PM","Saturday,Closed","Sunday,Closed",
Church Of God In Jesus Christ - Food Distribution Center,"157-22 Tuskegee Airmen Way, Jamaica, NY 11433, USA",40.6981415,-73.7970345,(718) 291-9281,http://apostlesfaithchurch.org/index.html,mail@apostlesfaithchurch.org,,,,,Food bank,ChIJAQB8kNdgwokRz5FDVfxgl5I,AP,"Monday,12 to 1PM","Tuesday,Closed","Wednesday,10 to 11AM, 4 to 5PM","Thursday,Closed","Friday,Closed","Saturday,Closed","Sunday,Closed",
Church of God Inc.,"1011 Winthrop St, Brooklyn, NY 11212, USA",40.6602869,-73.9261375,(718) 826-0685,,,,,,,Food bank,ChIJd99rCYVcwokR9pdzzvLVGQ0,OM,closed,closed,closed,closed,closed,12:00 PM - 01:00 PM,closed,
Church of God of Prophecy (Pantry & Soup Kitchen),"71 Malta St, Brooklyn, NY 11207, USA",40.6590539,-73.89499,(917) 640-3475,,,,,,,Food bank,ChIJuyP4UvlcwokRVxcpEv0CApY,OM,closed,05:00 PM - 07:00 PM (2nd and 4th Tuesday of the month),closed,closed,closed,closed,closed,
Church of God of Salvation,"1615 Nostrand Ave., Brooklyn, NY 11226, USA",40.6466749,-73.9488919,(347) 984-3350,,,,,,,Food bank,ChIJ7_m7XkNbwokRukdSOt2nYxE,OM,closed,09:00 AM - 11:00 AM,closed,09:00 AM - 11:00 AM,closed,closed,closed,
Church of God Seventh Day Pentecostal,"922 St Marks Ave, Brooklyn, NY 11213, USA",40.6743421,-73.9415978,(718) 693-7968,,glorify1@optonline.net,,,,"Phone: (718) 221-9718
Email: glorify1@optonline.net
Soup Kitchen and Food Pantry.
Soup Kitchen Hours of Operation:
Wednesday 5:00 pm - 7:00 pm
Food Pantry Hours of Operation:
Tuesday 5:00 pm - 6:30 pm
For more information, please call them.",Food bank,ChIJRyJvV4FbwokRFvm7rhd5w6c,OM,closed,04:00 PM - 06:30 PM,closed,closed,closed,closed,closed,
Church of Praise and Worship God in Christ,"526 Ralph Ave, Brooklyn, NY 11233, USA",40.6714166,-73.9225373,(347) 462-5679,,,,,,,Food bank,ChIJZ5fXa2NcwokRBB_NmuUabbI,OM,closed,closed,closed,closed,closed,12:30 PM - 02:30 PM,closed,
Church of Saint Francis (kitchen) - Food Distribution Center,"135 E 96th St, New York, NY 10128, USA",40.7862721,-73.9515368,(212) 289-0425,,,,,,,Food bank,ChIJFRlUv6ZYwokRXsKW5kMxpCM,AP,"Monday,8:30AM to 4PM","Tuesday,8:30AM to 4PM","Wednesday,8:30AM to 4PM","Thursday,8:30AM to 4PM","Friday,8:30AM to 4PM","Saturday,8:30AM to 4PM","Sunday,8:30AM to 4PM",
Church of Saint Joseph of the Holy Family - Food Distribution Center,"405 W 125th St, New York, NY 10027, USA",40.8118399,-73.954194,(212) 662-9125,https://www.stjosephsharlem.com/food-pantry,sjhfnyc@gmail.com,,,,,Food bank,ChIJfW_OZWv2wokR6xSYq89hU4I,AP,,,,,,,,
Church of Saint Mark - Food Distribution Center,"1417 Union St, Brooklyn, NY 11213, USA",40.6687943,-73.944522,(718) 756-6607,,,,,,,Food bank,ChIJo5DA-XhbwokR-drp4XrX1Fc,AP,"Monday,5 to 7:30PM","Tuesday,Closed","Wednesday,Closed","Thursday,Closed","Friday,Closed","Saturday,Closed","Sunday,Closed",
Church of Saint Peter - Food Distribution Center,"145 Clinton B Fiske Ave, Staten Island, NY 10314, USA",40.6410542,-74.0975178,(212) 371-1001,,,,,,,Food bank,ChIJRRFu4jxOwokR6QZWW7QTA-8,AP,,,,,,,,
Church of St. Frances of Rome,"760 Whitehall Pl, Bronx, NY 10466, USA",40.8854555,-73.8535456,(917) 297-4548,,,,,,,Food bank,ChIJkZoe9dfywokRvKzfgdEY_ls,OM,closed,closed,closed,closed,09:00 AM - 12:00 PM,closed,closed,
Church of the Annunciation,"133 W 134th St, New York, NY 10037, USA",40.8149923,-73.9529904,(212) 234-1919,,,,,,,Food bank,ChIJe2w5yG72wokRBJI0NIBmtd4,OM,closed,10:30 AM - 11:30 AM,closed,closed,closed,closed,closed,
Church Of The Ascension Food Pantry - Food Distribution Center,"12 W 11th St, New York, NY 10011, USA",40.7340867,-73.9957498,(212) 564-8620,http://ascensionoutreach.org/,,,,,"Hours of Operation:
8:30 AM to 9:30 AM on the 2nd and 4th Saturday of the month.
Proof of residence is required, but only the first 200 people will be accommodated.",Food bank,ChIJo33bcZdZwokRuf6c4xzCGZA,AP,closed,closed,closed,closed,closed,08:30 AM - 09:00 AM,closed,
Church Of The Crucifixion - Food Distribution Center,"459 W 149th St, New York, NY 10031, USA",40.8275043,-73.9448108,(212) 281-0900,http://churchofthecrucifixionnyc.org/,coc@churchofthecrucifixionnyc.org,,,,"Food Pantry Hours of Operation:
Wednesday: 10:00 am - 1:00 pm",Food bank,ChIJ135edX32wokRohH2QN-jJTY,AP,"Monday,Closed","Tuesday,Closed","Wednesday,10AM to 1PM","Thursday,Closed","Friday,Closed","Saturday,Closed","Sunday,Closed",
Church of the Epiphany - Food Distribution Center,"1393 York Ave, New York, NY 10021, USA",40.7684147,-73.9528258,(212) 737-2720,,,,,,,Food bank,ChIJ_b2FJsdYwokRw5RU_Zj4R_0,AP,"Monday,Closed","Tuesday,Closed","Wednesday,6 to 7:30PM","Thursday,Closed","Friday,Closed","Saturday,Closed","Sunday,Closed",
Church of the Holy Spirit,"1712 45th St, Brooklyn, NY 11204, USA",40.6314169,-73.9805351,(347) 423-6724,,,,,,,Food bank,ChIJZ8Wx1tVEwokRnZT2u0ntH74,OM,closed,closed,closed,closed,closed,closed,closed,
Church of the Incarnation,"89-28 207th St, Queens, NY 11427, USA",40.7180412,-73.7571022,(718) 465-8534,,,,,,,Food bank,ChIJa2dxonlhwokR6-o9wG6JIPI,OM,closed,closed,closed,closed,1:00 PM - 3:00 PM,closed,closed,
Church of the Living God,"212 Schenectady Ave, Brooklyn, NY 11213, USA",40.672131,-73.9337536,(718) 419-2821,,,,,,,Food bank,ChIJXXMDEH9cwokRJ2b_gF4CX9Q,OM,closed,closed,closed,closed,closed,09:00 AM - 12:30 PM,closed,
church segunda el faro - Food Distribution Center,"2273 Walton Ave, Bronx, NY 10453, USA",40.8582234,-73.9030481,,,,,,,,Food bank,ChIJea3sI3f0wokRG25k52QIXzg,AP,,,,,,,,
"Cienfuegos Foundation, Inc.","90-33 Corona Ave., Queens, NY 11373, USA",40.738688,-73.874548,(646) 808-4361,,,,,,,Food bank,ChIJLf31VbJfwokRaHqpmgqRi9w,OM,closed,11:00-1:00,11:00-1:00,closed,11:00-1:00,closed,closed,
Cienfuegos Mobile Pantry,"482 E 138th St, Bronx, NY 10454, USA",40.8039977,-73.9204361,(646) 808-4361,,,,,,,Food bank,ChIJZYsWTcL1wokR2rXmjWtqCm0,OM,Closed,1pm-3pm,1pm-3pm,Closed,Closed,1pm-3pm,Closed,
Citadel of God Almighty Food Pantry,"442 E 183rd St, Bronx, NY 10458, USA",40.855446,-73.894237,(718) 364-4320,,,,,,,Food bank,ChIJjT4OBXz0wokRM9VAvNx_NCQ,AP,"Monday,Closed","Tuesday,Closed","Wednesday,5:30 to 6:30PM","Thursday,Closed","Friday,Closed","Saturday,Closed","Sunday,Closed",
City harvest,"50 2nd St, Brooklyn, NY 11231, USA",40.6785074,-73.993963,,,,,,,,Food bank,ChIJu_WF9cZbwokRE2Ipu5Fl8J8,AP,,,,,,,,
City Meals On Wheels - Food Distribution Center,"355 Lexington Ave, New York, NY 10017, USA",40.75016,-73.976477,(212) 687-1234,,info@citymeals.org,,https://www.citymeals.org/get-involved/volunteer-with-us,,"Services: We provide food delivery services to elderly individuals who are homebound. For more information, please contact us.
Hours of Operation:
Monday - Friday: 9:00 am - 6:00 pm.
Visit our website for more information on how to volunteer!",Food bank,ChIJt5cK5gNZwokR5zsC74ZvaXI,AP,,,,,,,,
City of Faith Church of God,"3453 White Plains Rd, Bronx, NY 10467, USA",40.8714855,-73.8678644,(718) 798-3052,,,,,,,Food bank,ChIJm7YSLRXzwokRzwgOJrB1GMo,OM,-,1:00 PM - 2:30 PM/RO-6/8-1pm-4pm,-,-,-,-,-,
City Year New York - Food Distribution Center,"20 W 22nd St, New York, NY 10010, USA",40.7413255,-73.9914068,,http://www.cityyear.org/,hqcommunications@cityyear.org,,,,,Food bank,ChIJbcdZhqNZwokRvJJSzm4rdmU,AP,,,,,,,,
Cityline Ozone Park Civilian Patrol Food Pantry,"83-10 Rockaway Blvd, Jamaica, NY 11416, USA",40.6827393,-73.8572059,,,,,,,,Food bank,ChIJydcwj-5dwokR_BIB-Duzodg,OM,closed,closed,closed,closed,closed,11:00am - 3:00pm,closed,
Classon Community Fridge,"641 Classon Ave, Brooklyn, NY 11238, USA",40.6785732,-73.9585067,,https://instagram.com/classon_community_fridge?utm_medium=copy_link,,,,,,Fridge,ChIJVYZ9txBbwokRsCG9TxxVwlE,AP,"Monday,Open 24 hours","Tuesday,Open 24 hours","Wednesday,Open 24 hours","Thursday,Open 24 hours","Friday,Open 24 hours","Saturday,Open 24 hours","Sunday,Open 24 hours",
Cloth - Food Distribution Center,"500 W 159th St, New York, NY 10032, USA",40.8341132,-73.9413393,(212) 795-4779,https://www.cloth159.org/cloth-services,,,,,,Food bank,ChIJc1Z58oP2wokRaBNB_WZuQ-A,AP,"Monday,Closed","Tuesday,Closed","Wednesday,9AM to 1PM","Thursday,Closed","Friday,Closed","Saturday,9AM to 1PM","Sunday,Closed",
Co-Op City Seventh Day Adventist Church,"1010 Baychester Ave, Bronx, NY 10475, USA",40.8755162,-73.8310167,(646) 851-8591,,,,,,,Food bank,ChIJmU4N7c-MwokRiZoeq7GKK6o,OM,-,-,5:30 PM - 7:00 PM,-,-,-,-,
Coalition For The Homeless - Food Distribution Center,"129 Fulton St, New York, NY 10038, USA",40.7102958,-74.007457,(212) 776-2000,http://coalitionforthehomeless.org/,info@cfthomeless.org,volunteer@cfthomeless.org,,,"Services: The organization offers a soup kitchen. For more information, contact by phone.

Email us for more volunteering information",Food bank,ChIJ9XQJEhhawokR5YpQ-DCV3ZA,AP,,,,,,,,
Coalition For The Homeless Mobile Soup Kitchen,"108 E 51st St, New York, NY 10022, USA",40.7573397,-73.9727561,(212) 776-2002,https://www.coalitionforthehomeless.org/our-programs/food/grand-central-food-program/,info@cfthomeless.org,,,,,Food bank,ChIJtQ-t6vxYwokR5KBDyvt4h9g,AP,"Monday,5:30 to 7PM","Tuesday,5:30 to 7PM","Wednesday,5:30 to 7PM","Thursday,5:30 to 7PM","Friday,5:30 to 7PM","Saturday,5:30 to 7PM","Sunday,5:30 to 7PM",
Coalition For The Homeless United Bronx Parents Food Pantry & Soup Kitchen,"773 Prospect Ave, Bronx, NY 10455, USA",40.817951,-73.9028707,+1 718-991-7100,https://www.coalitionforthehomeless.org/resources/united-bronx-parents-inc/,info@cfthomeless.org,,,,,Food bank,ChIJp6gkJrL1wokRABu84NrAX_o,AP,"Monday,12 to 4pm","Tuesday,12 to 4pm","Wednesday,12 to 4pm","Thursday,12 to 4pm","Friday,12 to 4pm","Saturday,12 to 4pm","Sunday,12 to 4pm",
Come World Ministries Inc,"1034 Prospect Ave, Bronx, NY 10459, USA",40.824576,-73.8993775,(718) 617-3744,,,,,,,Food bank,ChIJYc6tqv31wokRBGDj622GuUA,AP,"Monday,9AM to 5PM","Tuesday,9AM to 5PM","Wednesday,9AM to 5PM","Thursday,9AM to 5PM","Friday,9AM to 5PM","Saturday,Closed","Sunday,Closed",
Communities for Healthy Food at West Harlem Group Assistance - Food Distribution Center,"625 Malcolm X Blvd, New York, NY 10030, USA",40.818283,-73.938316,(212) 690-7900,,,,,,,Food bank,ChIJvyUQL3j2wokRk95YbN_TszA,AP,,,,,,,,
Community Alliance Initiative,"60-85 Myrtle Ave, Flushing, NY 11385, USA",40.6999435,-73.895278,(718) 305-4888,,,,,,,Food bank,ChIJSYAMhClcwokRVUyYPgVHPeA,OM,10:00 AM - 04:00 PM,10:00 AM - 04:00 PM,10:00 AM - 04:00 PM,10:00 AM - 04:00 PM,10:00 AM - 04:00 PM,closed,closed,
Community Capital Bank - Food Distribution Center,"111 Livingston St, Brooklyn, NY 11201, USA",40.6913882,-73.989844,,,,,,,,Food bank,ChIJ2QvEpk5awokRZie138A6qP8,AP,,,,,,,,
Community Center - Food Distribution Center,"71 Eldridge St, New York, NY 10002, USA",40.716844,-73.992921,,,,,,,,Food bank,ChIJ6y3TIChawokRCtb6TV_hric,AP,,,,,,,,
Community Development Venture Capital Alliance - Food Distribution Center,"9 E 47th St, New York, NY 10017, USA",40.7564875,-73.9777069,,,,,,,,Food bank,ChIJ-XV8e_5YwokRTruYRT1TLPk,AP,,,,,,,,
Community Food Pantry at Highbridge,"1363 Ogden Ave, Bronx, NY 10452, USA",40.8366719,-73.924937,(718) 960-2262,,,,,,,Food bank,ChIJe5jVRyP0wokRqhzU0U70dms,OM,closed,10:00 AM - 12:00 PM,closed,01:00 PM - 03:00 PM,closed,10:00 AM - 12:00 PM,closed,
Community Food Program North Presbyterian Church - Food Distribution Center,"525 W 155th St, New York, NY 10032, USA",40.8323851,-73.9444318,(917) 916-8077,,,,,,,Food bank,ChIJuyqejIb2wokR-eshdBDttdA,AP,,,,,,,,
Community Fridge,"Covert St. &, 1643 Broadway, Brooklyn, NY 11207, USA",40.6850612,-73.9137086,,,,,,,,Fridge,ChIJM5FeYZ1dwokRSfb8fMPmVIs,AP,"Monday,Open 24 hours","Tuesday,Open 24 hours","Wednesday,Open 24 hours","Thursday,Open 24 hours","Friday,Open 24 hours","Saturday,Open 24 hours","Sunday,Open 24 hours",
Community Fridge,"635 Rogers Ave, Brooklyn, NY 11226, USA",40.6559968,-73.952824,,https://www.instagram.com/bkfridges/?hl=en,,,,,,Fridge,ChIJqUSTISlbwokRYv0BJGEvQXY,AP,"Monday,Open 24 hours","Tuesday,Open 24 hours","Wednesday,Open 24 hours","Thursday,Open 24 hours","Friday,Open 24 hours","Saturday,Open 24 hours","Sunday,Open 24 hours",
Community Fridge,"326 6th St, Brooklyn, NY 11215, USA",40.671069,-73.9851953,,https://nycfridge.com/,,,,,,Fridge,ChIJszjHBUJbwokRl2ViL9RDq7o,AP,"Monday,Open 24 hours","Tuesday,Open 24 hours","Wednesday,Open 24 hours","Thursday,Open 24 hours","Friday,Open 24 hours","Saturday,Open 24 hours","Sunday,Open 24 hours",
Community Fridge,"245 23rd St, Brooklyn, NY 11215, USA",40.6601323,-73.9941366,(718) 965-4795,http://www.mixteca.org/,info@mixteca.org,,,,,Fridge,ChIJ4ZiIjd9bwokRI1O6v6Dp7GY,AP,"Monday,Open 24 hours","Tuesday,Open 24 hours","Wednesday,Open 24 hours","Thursday,Open 24 hours","Friday,Open 24 hours","Saturday,Open 24 hours","Sunday,Closed",
Community Fridge,"137 E 2nd St, Brooklyn, NY 11218, USA",40.648642,-73.9791577,,https://www.instagram.com/kwtfridge/,,,,,,Fridge,ChIJCYlaFgJbwokRk--E4qETB24,AP,"Monday,Open 24 hours","Tuesday,Open 24 hours","Wednesday,Open 24 hours","Thursday,Open 24 hours","Friday,Open 24 hours","Saturday,Open 24 hours","Sunday,Open 24 hours",
Community Fridge,"124 Henry St, Brooklyn, NY 11201, USA",40.6970349,-73.9937004,,https://nycfridge.com/,,,,,,Fridge,ChIJFRBNBV9bwokRLng3mPvTmcw,AP,"Monday,Open 24 hours","Tuesday,Open 24 hours","Wednesday,Open 24 hours","Thursday,Open 24 hours","Friday,Open 24 hours","Saturday,Open 24 hours","Sunday,Open 24 hours",
Community Fridge,"1144 Bergen St, Brooklyn, NY 11216, USA",40.6757542,-73.9477843,,https://nycfridge.com/,,,,,,Fridge,ChIJMXx66qFbwokRchJpPprCMkc,AP,"Monday,Open 24 hours","Tuesday,Open 24 hours","Wednesday,Open 24 hours","Thursday,Open 24 hours","Friday,Open 24 hours","Saturday,Open 24 hours","Sunday,Open 24 hours",
Community Fridge,"1046 Broadway, Brooklyn, NY 11221, USA",40.6951911,-73.9323711,,,,,,,,Fridge,ChIJH7-pjupdwokR5BH_8UCBS8Q,AP,,,,,,,,
Community fridge forest ave.,"2142 Forest Ave, Staten Island, NY 10303, USA",40.6263593,-74.1609226,,,,,,,,Fridge,ChIJUfnfuGtNwokR9VFDv5ucb7o,AP,"Monday,Open 24 hours","Tuesday,Open 24 hours","Wednesday,Open 24 hours","Thursday,Open 24 hours","Friday,Open 24 hours","Saturday,Open 24 hours","Sunday,Open 24 hours",
Community Fridge of Harlem,"29 W 120th St, New York, NY 10027, USA",40.8045056,-73.9476607,,,,,,,,Fridge,ChIJm6gj28b3wokROiIynmXmLnA,AP,,,,,,,,
Community Health Action of Staten Island,"2134 Richmond Terrace, Staten Island, NY 10302, USA",40.6401964,-74.1343154,(718) 808-1840,http://chasiny.org/food-pantry-assistance,info@nbtechnologies.net,,,,"Hours of Operation:
- Tuesday: 10:00 am - 2:00 pm
- Wednesday: 12:00 pm - 4:00 pm
- Friday: 2:00 pm - 6:00 pm
- Saturday: 10:00 am
The pantry offers free food and services to anyone, without the need to document individual or household incomes. Customers can shop once a month and choose from available foods to take home what their family will eat. The pantry is one of the few in New York that has medical staff on site, offering free blood pressure, A1C, and health checks. They also have a SNAP Navigator and a health insurer Navigator to connect customers with services. Additionally, they have a lending library and a safe sex table, where they offer free condoms of various styles. Finally, they have a mobile health unit and mobile food pantry. To find their locations or request a monthly calendar, please call.",Food bank,ChIJ0TqbW_tNwokRu20ego48XRA,AP,"Monday,Closed","Tuesday,10AM to 2PM","Wednesday,2 to 6PM","Thursday,Closed","Friday,12 to 4PM","Saturday,10AM to 12PM","Sunday,Closed",
Community Healthcare Network - Food Distribution Center,"184 5th Ave, New York, NY 10010, USA",40.741444,-73.99007,(212) 924-1400,http://www.chnnyc.org/,janedoe@lorempsu.com,,,,,Food bank,ChIJg2TKC6RZwokRX7CkORfZjpY,AP,,,,,,,,
Community Help in Park Slope Inc. (CHIPS),"200A 4th Ave, Brooklyn, NY 11217, USA",40.6782875,-73.9828518,(718) 237-2962,,,,,,,Food bank,ChIJtTcA1apbwokRCd5VJ5RkjWU,OM,11:00AM-1:00PM,11:00AM-1:00PM,11:00AM-1:00PM,11:00AM-1:00PM,11:00AM-1:00PM,11:00AM-1:00PM,closed,
Community Impact At Columbia University - Food Distribution Center,"2980 Broadway, New York, NY 10027, USA",40.8086046,-73.9627312,(212) 854-1492,https://www.communityimpact.columbia.edu/content/food-pantry,ciemergencyfoodprograms@gmail.com,,,,,Food bank,ChIJVVUF-T72wokRMJPmoi-Dgdo,AP,,,,,,,,
Community Impact Food Pantry,"616 W 114th St, New York, NY 10025, USA",40.8031965,-73.9658462,(212) 854-6310,,,,,,,Food bank,ChIJMVqS_Tv2wokRh_g6kZIJJDo,OM,12:00 PM to 02:00 PM,closed,closed,12:00 PM - 02:00 PM,closed,closed,closed,
Community League of the Heights,"508 W 159th St, New York, NY 10032, USA",40.8316313,-73.9418489,(212) 795-4779,,,,,,,Food bank,ChIJiYmeCoT2wokRSw4k5w_evzg,OM,closed,09:00 AM - 01:00 PM,closed,closed,closed,09:00 AM - 01:00 PM,closed,
Community Outreach Ministry Of Stapleton Uame Church - Food Distribution Center,"49, 2628 Tompkins Ave., Staten Island, NY 10304, USA",40.623399,-74.078635,(718) 273-2857,http://stapletonuamechurch.org/,StapletonUAME@gmail.com,,,,"Soup Kitchen Hours of Operation:
- Monday and Friday: 3:00 pm - 4:00 pm
- Wednesday: 12:00 pm - 1:00 pm
Food Pantry Hours of Operation:
- Tuesday and Friday: 10:00 am - 1:00 pm
Requirements:
- ID, proof of residence, and verification of household members are required.
For more information, please call the organization.",Food bank,ChIJcTtn6ExOwokRrJyQDbcd49E,AP,,,,,,,,
Community Premier Plus - Food Distribution Center,"534 W 135th St, New York, NY 10031, USA",40.8197501,-73.9546081,(212) 491-2333,,,,,,,Food bank,ChIJnzRGpGj2wokRh4SyNP231hU,AP,,,,,,,,
Community Services Housing Development Corp - Food Distribution Center,"547 Howard Ave, Brooklyn, NY 11233, USA",40.6690096,-73.9198204,(718) 574-6375,http://www.cshdc.org/,cshdc1474@csdhc.org,,,,,Food bank,ChIJJ_QpSGJcwokRHXr1KhJc8bQ,AP,closed,closed,closed,10:00 AM - 12:00 PM,closed,closed,closed,
Community Services of Far Rockaway - Food Distribution Center,"454 Beach 67th St, Arverne, NY 11692, USA",40.5943133,-73.796048,(718) 634-7172,,,,,,,Food bank,ChIJpdZs8mFowokRWC04XYhLmAQ,AP,,,,,,,,
"Community Training & Resource Center, Inc. - Food Distribution Center","130 William St, New York, NY 10038, USA",40.7091082,-74.0064804,,,,,,,,Food bank,ChIJydr1qSJawokRJI7-OY-GRyQ,AP,,,,,,,,
Community United Methodist Church - Food Distribution Center,"81-10 35th Ave, Flushing, NY 11372, USA",40.7515432,-73.8854475,(410) 255-1506,,,,,,,Food bank,ChIJWeEBMKZfwokR6jPzDOQwKwk,AP,"Monday,Closed","Tuesday,10:30AM to 12:30PM","Wednesday,Closed","Thursday,10:30AM to 12:30PM","Friday,Closed","Saturday,Closed","Sunday,Closed",
Community Voices Heard - Food Distribution Center,"170 E 116th St, New York, NY 10029, USA",40.7981036,-73.940927,(212) 860-6001,https://www.cvhaction.org/,michelle@cvhaction.org,,,,,Food bank,ChIJl9N8Gwb2wokRTu4Op7IdRHc,AP,,,,,,,,
Compassion Meals-Soup Kitchen,"209 Broadway, New York, NY 10007, USA",40.711326,-74.0091777,+1 917-594-6300,https://trinitywallstreet.org/social-justice/food-assistance,resources@trinitywallstreet.org,,,,,Food bank,ChIJH0JAUhhawokRSkD5CDl_nzs,AP,"Monday,10am to 12pm","Tuesday,10am to 12pm","Wednesday,10am to 12pm","Thursday,10am to 12pm","Friday,10am to 12pm","Saturday,10am to 12pm","Sunday,Closed",
Compresensive Family Care Center For Hiv - Food Distribution Center,"1525 Blondell Ave, Bronx, NY 10461, USA",40.845826,-73.8457528,(718) 405-8530,,,,,,,Food bank,ChIJ8XX-r630wokRratp0kfCies,AP,,,,,,,,
Comunnity fridge Jackson Heights,"80-02 Northern Blvd, Jackson Heights, NY 11372, USA",40.755152,-73.8869912,,,,,,,,Fridge,ChIJFae0GsJfwokRffsokxRSJGU,AP,"Monday,Open 24 hours","Tuesday,Open 24 hours","Wednesday,Open 24 hours","Thursday,Open 24 hours","Friday,Open 24 hours","Saturday,Open 24 hours","Sunday,Open 24 hours",
Concourse House - Food Distribution Center,"2751 Grand Concourse, Bronx, NY 10468, USA",40.868404,-73.89336,(718) 584-4400,http://www.concoursehouse.org/,,,,,,Food bank,ChIJl8q0dIPzwokROUwMVnGjZaw,AP,"Monday,Closed","Tuesday,Closed","Wednesday,Closed","Thursday,Open 24 hours","Friday,Open 24 hours","Saturday,Closed","Sunday,Closed",
Coney Island Lighthouse Mission - Food Distribution Center,"2114 Mermaid Ave, Brooklyn, NY 11224, USA",40.5760168,-73.9884053,+1 718-441-1125,http://www.actsnyc.org/,coneylighthouse@aol.com,,,,"Food Pantry Hours of Operation:
- Tuesday: 6:00 pm - 7:00 pm
- Thursday: 11:00 am - 12:00 pm
Soup Kitchen Hours of Operation:
- Wednesday and Friday: 6:00 pm - 7:30 pm
Please call for more information.",Food bank,ChIJxxO3JcpFwokRfoYl836bsTI,AP,"Monday,2 to 5PM","Tuesday,9AM to 7PM","Wednesday,2PM to 7:30AM","Thursday,9AM to 5PM","Friday,2 to 7:30PM","Saturday,Closed","Sunday,11AM to 2PM",
"Coney Island Youth Development, Inc. - Food Distribution Center","2866 W 17th St, Brooklyn, NY 11224, USA",40.5767985,-73.9851617,,,,,,,,Food bank,ChIJ0X7QmspFwokRQAQfpUhsldU,AP,"Monday,9:30am to 1:30pm","Tuesday,Closed","Wednesday,Closed","Thursday,Closed","Friday,Closed","Saturday,Closed","Sunday,Closed",
Congregation Bnai Jeshurun - Food Distribution Center,"257 W 88th St, New York, NY 10024, USA",40.7900701,-73.9761606,(212) 799-1808,,,,,,,Food bank,ChIJl4tNwoNYwokRTLvtVuHv7i0,AP,"Monday,Closed","Tuesday,Closed","Wednesday,Closed","Thursday,12 to 1PM","Friday,Closed","Saturday,Closed","Sunday,Closed",
Convent Avenue Baptist Church,"425 W 144th St, New York, NY 10031, USA",40.821508,-73.9464296,(646) 698-5102,,,,,,,Food bank,ChIJMT5voHz2wokRJ_grKLr5tT0,OM,09:00 AM - 12:00 PM (every other Monday),closed,closed,closed,closed,closed,closed,
Cooperative Home Care Associates - Food Distribution Center,"349 E 149th St, Bronx, NY 10451, USA",40.8168689,-73.91968,(718) 993-7104,https://www.chcany.org/,info@chcany.org,,,,,Food bank,ChIJjWSlPc_1wokRYNlrUOMxKzk,AP,,,,,,,,
COPA,"1081 Coney Island Ave, Brooklyn, NY 11230, USA",40.6313234,-73.966185,,,,,,,,Food bank,ChIJM2QaOdFFwokRYjzI7RhF4XU,AP,,,,,,,,
Cornell Cooperative Extension-nyc - Food Distribution Center,"16 E 34th St, New York, NY 10016, USA",40.7478379,-73.9836152,(212) 340-2900,https://cals.cornell.edu/cornell-cooperative-extension/our-work/agriculture-food-systems,,,,,,Food bank,ChIJR3MB0qlZwokRLDmfRjIgIbo,AP,,,,,,,,
Cornerstone Baptist Church Gateway - Food Distribution Center,"5th Ave, Brooklyn, NY, USA",40.6903122,-73.9271626,(718) 574-5900,,,,,,,Food bank,ChIJAQAAAA1cwokRZlkGGoSVr3Y,AP,,,,,,,,
Cornerstone Baptist Food Pantry - Food Distribution Center,"574 Madison St, Brooklyn, NY 11221, USA",40.6863815,-73.9350983,(347) 221-1801,,,,,,,Food bank,ChIJkQAFnXVcwokREtXpjUUIZjQ,AP,"Monday,Closed","Tuesday,11AM to 2PM","Wednesday,Closed","Thursday,Closed","Friday,Closed","Saturday,Closed","Sunday,Closed",
Cornerstone Sda Church - Food Distribution Center,"138 Pennsylvania Ave, Brooklyn, NY 11207, USA",40.6744861,-73.8967273,,,,,,,,Food bank,ChIJR-8nPE5cwokRIkqA08iGDrw,AP,,,,,,,,
Corona Meal Programs - Food Distribution Center,"35-30 103rd St, Flushing, NY 11368, USA",40.7538172,-73.8648646,(718) 429-7050,,,,,,,Food bank,ChIJq0kGpcBfwokRa1QspaExEmk,AP,"Monday,9AM to 12PM","Tuesday,Closed","Wednesday,Closed","Thursday,Closed","Friday,Closed","Saturday,Closed","Sunday,12 to 2:30PM",
Corpus Christi Food Pantry,"31-31 60th St, Woodside, NY 11377, USA",40.7565793,-73.9024456,(929) 272-7678,,,,,,,Food bank,ChIJWWncuRFfwokRMnLO2KO10VY,OM,closed,closed,11:00 AM - 01:00 PM,closed,closed,closed,closed,
Council of Jewish Organizations of Staten Island - Food Distribution Center,"984 Post Ave, Staten Island, NY 10302, USA",40.6322788,-74.1335359,(718) 720-4047,http://www.cojosi.com/,info@cojosi.org,,,,"Food Pantry
Hours of operation: Monday, Tuesday, and Thursday from 10:00 am to 2:00 pm
For more information, please call.",Food bank,ChIJWdsBcNtNwokRw-pA4VXkxjI,AP,"Monday,10AM to 2PM","Tuesday,10AM to 2PM","Wednesday,Closed","Thursday,10AM to 2PM","Friday,Closed","Saturday,Closed","Sunday,Closed",
Council of Jewish Organizations of Staten Island - Food Distribution Center,"382 Jersey St, Staten Island, NY 10301, USA",40.639046,-74.08763,(718) 720-4047,http://www.cojosi.com/,info@cojosi.org,,,,,Food bank,ChIJYx1kYTBOwokRUkaTXRh1p8Y,AP,,,,,,,,
Council of Peoples Organization (COPO),"1077 Coney Island Ave, Brooklyn, NY 11230, USA",40.631252,-73.96625,(718) 434-3266,http://copo.org/,info@copo.org,,,,,Food bank,ChIJfy2ofMxEwokRK1EEYrHWa1I,AP,"Monday,9AM to 5PM","Tuesday,9AM to 5PM","Wednesday,9AM to 5PM","Thursday,9AM to 5PM","Friday,9AM to 5PM","Saturday,Closed","Sunday,Closed",
Council Of Senior Centers And Services - Food Distribution Center,"49 W 45th St, New York, NY 10036, USA",40.7563557,-73.9813681,(212) 563-7160,,,,,,,Food bank,ChIJ00r3lf9YwokRLA114BH0wig,AP,,,,,,,,
Covenant House New York,"460 W 41st St, New York, NY 10036, USA",40.7586223,-73.9958534,(212) 613-0300,https://ny.covenanthouse.org/,chny@covenanthouse.org,,,,"Services:
- Crisis shelter kitchens
- Transitional shelter kitchens",Food bank,ChIJE0_Yb01YwokRNZuOz3j3Fq8,AP,"Monday,Open 24 hours","Tuesday,Open 24 hours","Wednesday,Open 24 hours","Thursday,Open 24 hours","Friday,Open 24 hours","Saturday,Open 24 hours","Sunday,Open 24 hours",
Cpmc - Wic Program - Food Distribution Center,"68 Nagle Ave, New York, NY 10040, USA",40.8603387,-73.9288841,(212) 304-3642,,,,,,,Food bank,ChIJjyZePQT0wokRnoTp6sXKzjM,AP,,,,,,,,
Create Food Pantry,"73 Lenox Ave, New York, NY 10026, USA",40.8006181,-73.9511136,(212) 663-1975,http://www.createinc.org/index-services.asp,info@createinc.org,,,,"Phone: (212) 663-1975
They serve thousands of people every week and fill an important niche in the Harlem community through their food pantry.
Hours of operation: Wednesday 1:00 pm - 2:00 pm.
For more information, please call them.",Food bank,ChIJVVVBjxD2wokRFvCTAcDhTKw,AP,,,,,,,,
"Credit Where Credit Is Due, Inc. - Food Distribution Center","4211 Broadway, New York, NY 10033, USA",40.8487019,-73.9375768,,,,,,,,Food bank,ChIJmTWNaqD2wokR6T6Aefxui-w,AP,,,,,,,,
Crer: Cultural Renaissance For Economic Revitilization - Food Distribution Center,"522 Morris Park Ave, Bronx, NY 10460, USA",40.8422432,-73.8714854,+1 718-823-2573,,,,,,,Food bank,ChIJdwJi95P0wokRqz5cBKc0TEI,AP,,,,,,,,
Creston Avenue Baptist Church - Food Distribution Center,"114 E 188th St, Bronx, NY 10468, USA",40.8617609,-73.8991349,(718) 367-1754,https://www.crestonavenuebaptistchurch.org/outreach-1,,,,,,Food bank,ChIJ7a7riofzwokRhj3TDpGufKQ,AP,"Monday,12 to 2PM","Tuesday,Closed","Wednesday,12 to 2PM","Thursday,Closed","Friday,12 to 2PM","Saturday,12 to 2PM","Sunday,Closed",
Crossover Baptist Church Comm. Outreach Help Cntr.,"85-12 101st Ave, Queens, NY 11416, USA",40.6812291,-73.8539095,(718) 971-4953,,,,,,,Food bank,ChIJD3XI-e1dwokR9eihZiSO06c,OM,closed,closed,closed,closed,10:00 AM - 2:00PM,closed,closed,
Crossroads Food Pantry - Food Distribution Center,"329 W 42nd St, New York, NY 10036, USA",40.7579652,-73.9910709,+1 212-246-4732,http://www.holycrossnyc.com/,,,,,,Food bank,ChIJ74oYEFNYwokR5EeLmDwjSRM,AP,"Monday,Closed","Tuesday,Closed","Wednesday,Closed","Thursday,Closed","Friday,Closed","Saturday,11am to 1pm","Sunday,Closed",
Crown Heights Community Outreach Center,"467 Rutland Rd, Brooklyn, NY 11203, USA",40.6599714,-73.9450979,(718) 493-5049,,,,,,,Food bank,ChIJua1fJmVbwokR2Ma1QtkmsoU,OM,closed,closed,closed,closed,04:00 PM - 07:00 PM,closed,closed,
Crown Heights Community Partner Mobile Market - Food Distribution Center,"1720 Bedford Ave, Brooklyn, NY 11225, USA",40.6645909,-73.9577832,,,,,,,,Food bank,ChIJweHu5nJbwokRPMNETn_xIoI,AP,,,,,,,,
Crown Heights Jewish Community Council Food Pantry,"388 Schenectady Ave, Brooklyn, NY 11213, USA",40.6646635,-73.9344361,(718) 771-9000,http://chcentral.org/,mail@chjcc.org,,,,,Food bank,ChIJTemP_IFcwokRwQg6mQ_C9bI,AP,"Monday,Closed","Tuesday,Closed","Wednesday,9AM to 5PM","Thursday,Closed","Friday,Closed","Saturday,Closed","Sunday,Closed",
Cuyler Warren United Methodist Church,"424 Dean St, Brooklyn, NY 11217, USA",40.6820152,-73.9771774,(347) 863-5429,,,,,,,Food bank,ChIJrYI0KKxbwokRsXB6hQ2hkxI,OM,closed,01:30 PM - 02:45 PM,closed,closed,closed,closed,closed,
Davidson Community Center,"2038 Davidson Ave, Bronx, NY 10453, USA",40.8508211,-73.9084715,(718) 731-6360,,,,,,,Food bank,ChIJ45i4cnL0wokRw9UhyzuCBMk,OM,closed,closed,10:00 AM - 12:00 PM,closed,closed,closed,closed,
Davis Temple Church - Food Distribution Center,"104-13 Northern Blvd, Flushing, NY 11368, USA",40.7579984,-73.8639895,(718) 639-1417,,,,,,,Food bank,ChIJRVqmH8BfwokRl4p7MQHqU_M,AP,,,,,,,,
Deliverance Temple Church,"134-10 Rockaway Blvd, Jamaica, NY 11420, USA",40.6739912,-73.8040731,(718) 529-1993,,,,,,"Phone: (718) 604-7634
Food Pantry Hours of Operation: Tuesday 10:30 am - 12:30 pm
For more information, please call them.",Food bank,ChIJM6dJcSNnwokRVhflHvAXcy0,OM,closed,5:30 PM -6:30PM,closed,closed,closed,closed,closed,
Department of Probation - Staten Island Office - Food Distribution Center,"340 Bay St, Staten Island, NY 10301, USA",40.6339757,-74.0754282,+1 718-876-7395,http://www.nyc.gov/html/prob/html/home/home.shtml,,,,,,Food bank,ChIJK-dtaMtPwokRJpSDts_kHdM,AP,09:00 AM - 05:00 PM,09:00 AM - 05:00 PM,09:00 AM - 12:00 PM,09:00 AM - 05:00 PM,09:00 AM - 05:00 PM,closed,closed,
Department of Probation Bronx Office,"198 E 161 St, Bronx, NY 10451, USA",40.8245949,-73.9208577,(718) 410-7268,,,,,,,Food bank,ChIJg0mGKDP0wokRdzNxDRmMFIc,OM,09:00 AM - 05:00 PM,09:00 AM - 05:00 PM,09:00 AM - 05:00 PM,09:00 AM - 05:00 PM,09:00 AM - 05:00 PM,closed,closed,
Department of Probation Brooklyn Office,"345 Adams St, Brooklyn, NY 11201, USA",40.6927899,-73.9884741,(718) 488-3604,,,,,,,Food bank,ChIJp0lckGBbwokRRXqpoFciI28,OM,10:00 AM - 04:00 PM,10:00 AM - 04:00 PM,10:00 AM - 04:00 PM,10:00 AM - 04:00 PM,10:00 AM - 01:00 PM,closed,closed,
